record_code,format_version,submission_date,reporting_agency,location_code,location_type,name,latitude,longitude,psc_basin,psc_region,epa_reach,description,rmis_region,rmis_basin,rmis_latitude,rmis_longitude,record_origin
"L","4.1","20200203","CDFO","2MS24M19BBECH BY","1","JFSPT BECH BY (M19B)","48.3244","-123.6128",,,,"JFSPT           STAT AREA: M19B BECHER BAY          M19B","WCVI","SWVI","48.3244","-123.6128","N"
"L","4.1","20171204","CDFO","2MS27P025NOOT SD 07","1","WSPT  NOOT SD (25-7)","49.5906","-126.5844",,,,"WSPT            STAT AREA: P025 NOOTKA SOUND        P025","WCVI","WCVIG","49.55","-126.6667","N"
"L","4.1","20200203","CDFO","2M BMP017HUDS RK 12","1","BC MARHUDS RK (17-12)","49.2244","-123.9239",,,,"BC MARINE       STAT AREA: P017 HUDSON ROCKS        P017","GST","GSVI","49.2244","-123.9239","N"
"L","4.1","20200203","CDFO","2MN26P012BOUG BY 24","1","CSPT  BOUG BY (12-24)","50.5333","-126.1886",,,,"CSPT            STAT AREA: P012 BOUGHEY BAY         P012","JNST","JSM","50.5333","-126.1833","N"
"L","4.1","20200203","CDFO","2MS01H027       768","1","NWTR         H027-768",,,,,,"NWTR            TROLL ZONE 35 (part of PFMA 127)","WCVI","NWVI","50.4","-128.4","N"
"L","4.1","20200203","CDFO","2MS02H021       052","1","SWTR         H021-052",,,,,,"SWTR            SWIFTSURE BANK PFMA SUBS 21-2, PART OF -1)","WCVI","SWVI","48.55","-125","N"
"L","4.1","20200203","CDFO","2MS02H023       178","1","SWTR         H023-178",,,,,,"SWTR            THE WRECK (UCLUELET)","WCVI","SWVI",,,"N"
"L","4.1","20200203","CDFO","2MS02H023       733","1","SWTR         H023-733",,,,,,"SWTR            TROLL ZONE 2 (part of PFMA 123)","WCVI","SWVI","48.4","-125.62","N"
"L","4.1","20200203","CDFO","2MS61P013SUTI CH 14","1","JSSSPTSUTI CH (13-14)","50.1231","-125.0981",,,,"JSSSPT          STAT AREA: P013 SUTIL CHANNEL       P013","JNST","JSM","50.1231","-125.0981","N"
"L","4.1","20200203","CDFO","2MS23P017SHAR PT 07","1","GSPTS SHAR PT (17-7)","48.9814","-123.7686",,,,"GSPTS           STAT AREA: P017 SHARPE POINT        P017","GST","GSVI","48.9833","-123.7833","N"
"L","4.1","20200203","CDFO","2MS27P027DRAK IS 07","1","WSPT  DRAK IS (27-7)","50.5164","-127.6472",,,,"WSPT            STAT AREA: P027 DRAKE ISLAND        P027","WCVI","NWVI","50.5","-127.6667","N"
"L","4.1","20200203","CDFO","2MS27P027LAWN PT 05","1","WSPT  LAWN PT (27-5)","50.3253","-127.9767",,,,"WSPT            STAT AREA: P027 LAWN POINT          P027","WCVI","NWVI","50.3333","-127.9667","N"
"L","4.1","20200203","CDFO","2MS61P013KELS BY 33","1","JSSSPTKELS BY (13-33)","50.3939","-125.9583",,,,"JSSSPT          STAT AREA: P013 KELSEY BAY          P013","JNST","JNSTG","50.3939","-125.9583","N"
"L","4.1","20200203","CDFO","2F 29M333CHEA RI","1","FWSPT CHEA RI [M333]","49.7794","-123.1775",,,,"FWSPT           STAT AREA: M333 CHEAKAMUS RIVER     M333","GST","GSMS","49.7794","-123.1775","N"
"L","4.1","20200203","CDFO","2MS46M107       000","1","FGN & GSN    M107-000",,,,,,"FGN & GSN       PFMA 16, 29 (STAT AREAS 16, 29)","GST","GSTG","49.47","-123.9","N"
"L","4.1","20200203","CDFO","2MS23P018CP KEPP 06","1","GSPTS CP KEPP (18-6)","48.7136","-123.4875",,,,"GSPTS           STAT AREA: P018 CAPE KEPPEL         P018","GST","GSVI","48.7167","-123.5","N"
"L","4.1","20200203","CDFO","2MS24M19BCADB BY 04","1","JFSPT CADB BY (19-4)","48.4514","-123.2883",,,,"JFSPT           STAT AREA: M19B CADBORO BAY         M19B","GST","GSVI","48.45","-123.2833","N"
"L","4.1","20200203","CDFO","2MS01H025       755","1","NWTR         H025-755",,,,,,"NWTR            TROLL ZONE 23 (part of PFMA 125)","WCVI","WCVIG","49.44","-127.1","N"
"L","4.1","20200203","CDFO","2FS99JNSTR0275","1","R-KEOGH R",,,,,,"CDN ESCMENT     KEOGH R              JNST","JNST","JSVI","50.6775","-127.3483","N"
"L","4.1","20200203","CDFO","2MS01H026       801","1","NWTR         H026-801",,,,,,"NWTR            PFMA 126 UNKNOWN TROLL ZONES (OUTSIDE SURFLINE)","WCVI","NWVI","49.3","-128.42","N"
"L","4.1","20200203","CDFO","2MS27H027PR ALIC","1","WSPT  PR ALIC [H027]","50.4267","-127.4881",,,,"WSPT            STAT AREA: H027 PORT ALICE          H027","WCVI","NWVI","50.4267","-127.4881","N"
"L","4.1","20200203","CDFO","2MS22P013MCMU PT 07","1","GSPTN MCMU PT (13-7)","50.2453","-125.3969",,,,"GSPTN           STAT AREA: P013 MCMULLEN POINT      P013","JNST","JNSTG","50.25","-125.4","N"
"L","4.1","20200203","CDFO","2MS02H023       625","1","SWTR         H023-625",,,,,,"SWTR            BARKLEY SOUND","WCVI","SWVI","48.849524","-125.384102","N"
"L","4.1","20200203","CDFO","2MS27P123PACH BY 01","1","WSPT  PACH BY (123-1)","48.7844","-125.1315",,,,"WSPT            STAT AREA: P123 PACHENA BAY         P123","WCVI","SWVI","48.7844","-125.1315","N"
"L","4.1","20200203","CDFO","2MS62P014SARA BE 13","1","GSSPTCSARA BE (14-13)","49.8654","-125.1029",,,,"GSSPTC          STAT AREA: P014 SARATOGA BEACH      P014","GST","GSVI","49.8654","-125.1029","N"
"L","4.1","20200203","CDFO","2MS27P125FERR PT 03","1","WSPT  FERR PT (125-3)","49.7489","-126.9825",,,,"WSPT            STAT AREA: P125 FERRER POINT        P125","WCVI","NWVI","49.75","-126.9833","N"
"L","4.1","20200203","CDFO","2MS10M103       000","1","GSN          M103-000",,,,,,"GSN             PFMA 14, 16 (STAT AREAS 14, 16)","GST","GSTG","49.55","-124.38","N"
"L","4.1","20200203","CDFO","2MS10P014       085","1","GSN          P014-085",,,,,,"GSN             FRENCH CREEK (PFMA SUBS 14-1, -2, -4, PART OF -3)","GST","GSVI","49.35","-124.35","N"
"L","4.1","20200203","CDFO","2MS23P028PLUM CV 01","1","GSPTS PLUM CV (28-1)","49.4017","-123.4736",,,,"GSPTS           STAT AREA: P028 PLUMPER COVE        P028","GST","GSMS","49.4","-123.4667","N"
"L","4.1","20200203","CDFO","2MS61P013WLLO PT 02","1","JSSSPTWLLO PT (13-2)","49.9667","-125.2021",,,,"JSSSPT          STAT AREA: P013 WILLOW POINT        P013","GST","GSVI","49.9667","-125.2021","N"
"L","4.1","20200203","CDFO","2MS13P020       514","1","JFN          P020-514",,,,,,"JFN             SHERINGHAM POINT","WCVI","SWVI","48.3667","-123.9333","N"
"L","4.1","20200203","CDFO","2MS62P015WILL BE 01","1","GSSPTCWILL BE (15-1)","49.8474","-124.5362",,,,"GSSPTC          STAT AREA: P015 WILLINGDON BEACH    P015","GST","GSMS","49.8474","-124.5362","N"
"L","4.1","20200203","CDFO","2MS20H025       703","1","NWVN         H025-703",,,,,,"NWVN            GALIANO BAY","WCVI","NWVI","49.7114","-126.4703","N"
"L","4.1","20200203","CDFO","2MS20H026       094","1","NWVN         H026-094",,,,,,"NWVN            KYUQUOT SD.","WCVI","NWVI","49.94","-127.36","N"
"L","4.1","20200203","CDFO","2MS22P014COTT PT 01","1","GSPTN COTT PT (14-1)","49.3147","-124.2144",,,,"GSPTN           STAT AREA: P014 COTTAM POINT        P014","GST","GSVI","49.3167","-124.2333","N"
"L","4.1","20200203","CDFO","2MS22P016CLAY BK 01","1","GSPTN CLAY BK (16-1)","49.6781","-124.5116",,,,"GSPTN           STAT AREA: P016 CLAY BANKS          P016","GST","GSMS","49.5","-124.0167","N"
"L","4.1","20200203","CDFO","2MS27M23BOHIA IT 07","1","WSPT  OHIA IT (23-7)","48.8575","-125.1919",,,,"WSPT            STAT AREA: M23B OHIAT ISLET         M23B","WCVI","SWVI","48.8575","-125.1919","N"
"L","4.1","20200203","CDFO","2FS99GSVIH0151","1","H-CHEMAINUS R",,,,,,"CDN ESCMENT     CHEMAINUS R          GSVI","GST","GSVI","48.8833","-123.7","N"
"L","4.1","20200203","CDFO","2MS22P014LAMB CH 10","1","GSPTN LAMB CH (14-10)","49.5139","-124.7217",,,,"GSPTN           STAT AREA: P014 LAMBERT CHANNEL     P014","GST","GSVI","49.5333","-124.7167","N"
"L","4.1","20200203","CDFO","2MS22P013CARR BY 16","1","GSPTN CARR BY (13-16)","50.1433","-125.0089",,,,"GSPTN           STAT AREA: P013 CARRINGTON BAY      P013","JNST","JSM","50.1433","-125.0089","N"
"L","4.1","20200203","CDFO","2MS22P013CHAN CH 41","1","GSPTN CHAN CH (13-41)","50.4208","-125.6919",,,,"GSPTN           STAT AREA: P013 CHANCELLOR CHANNEL  P013","JNST","JSM","50.4167","-125.6667","N"
"L","4.1","20200203","CDFO","2MS22P013EARL LO 33","1","GSPTN EARL LO (13-33)","50.4131","-125.9208",,,,"GSPTN           STAT AREA: P013 EARL LEDGE          P013","JNST","JNSTG","50.4131","-125.9208","N"
"L","4.1","20200203","CDFO","2MS22P013ELK FAL 05","1","GSPTN ELK FAL (13-5)","50.0464","-125.2605",,,,"GSPTN           STAT AREA: P013 ELK FALLS           P013","JNST","JSVI","50.05","-125.3","N"
"L","4.1","20200203","CDFO","2MS27P027WAUK CK 10","1","WSPT  WAUK CK (27-10)","50.5881","-127.4181",,,,"WSPT            STAT AREA: P027 WAUKWAAS CREEK      P027","WCVI","NWVI","50.5833","-127.4167","N"
"L","4.1","20200203","CDFO","2FS99GSMNR1181","1","R-JUDD SL",,,,,,"CDN ESCMENT     JUDD SL              GSMN","GST","GSMS","49.767","-123.158","N"
"L","4.1","20200203","CDFO","2MS61P013HALL PT 26","1","JSSSPTHALL PT (13-26)","50.4447","-125.2847",,,,"JSSSPT          STAT AREA: P013 HALL POINT          P013","JNST","JSM","50.45","-125.2833","N"
"L","4.1","20200203","CDFO","2MS61P013ARRA RP 23","1","JSSSPTARRA RP (13-23)","50.4214","-125.1356",,,,"JSSSPT          STAT AREA: P013 ARRAN RAPIDS        P013","JNST","JSM","50.4214","-125.1356","N"
"L","4.1","20200203","CDFO","2MS20P025       000","1","NWVN         P025-000",,,,,,"NWVN            PFMA 25 - Nootka Sound, Esperanza Inlet","WCVI","NWVI",,,"N"
"L","4.1","20200203","CDFO","2FS99GSMNR0283","1","R-ANDERSON CR/PEN HA",,,,,,"CDN ESCMENT     ANDERSON CR/PEN HAR  GSMN","GST","GSMS","49.638","-128.987","N"
"L","4.1","20200203","CDFO","2MS23P29MPT ROBE 08","1","GSPTS PT ROBE (29-8)","48.9752","-123.0156",,,,"GSPTS           STAT AREA: P29M POINT ROBERTS       P29M","GST","GSMS","48.9752","-123.0156","N"
"L","4.1","20200203","CDFO","2MS22P013WHIR PO 23","1","GSPTN WHIR PO (13-23)","50.3833","-125.15",,,,"GSPTN           STAT AREA: P013 WHIRLPOOL           P013","JNST","JSM","50.3833","-125.15","N"
"L","4.1","20200203","CDFO","2MS23P017LAGO HD 21","1","GSPTS LAGO HD (17-21)","49.2281","-123.9497",,,,"GSPTS           STAT AREA: P017 LAGOON HEAD         P017","GST","GSVI","49.2333","-123.9333","N"
"L","4.1","20200203","CDFO","2MS22P014SARA BE 13","1","GSPTN SARA BE (14-13)","49.8654","-125.1029",,,,"GSPTN           STAT AREA: P014 SARATOGA BEACH      P014","GST","GSVI","49.8654","-125.1029","N"
"L","4.1","20200203","CDFO","2MS22P016IRON MI 21","1","GSPTN IRON MI (16-21)","49.7","-124.55",,,,"GSPTN           STAT AREA: P016 IRON MINE           P016","GST","GSMS","49.7","-124.55","N"
"L","4.1","20200203","CDFO","2MS23P017GALI IS 02","1","GSPTS GALI IS (17-2)","48.9231","-123.4386",,,,"GSPTS           STAT AREA: P017 GALIANO ISLAND      P017","GST","GSVI","48.9231","-123.4386","N"
"L","4.1","20200203","CDFO","2MS23M19APATR BY 08","1","GSPTS PATR BY (19-8)","48.6547","-123.4625",,,,"GSPTS           STAT AREA: M19A PATRICIA BAY        M19A","GST","GSVI","48.6547","-123.4625","N"
"L","4.1","20200203","CDFO","2MS23P018SEPA PT 07","1","GSPTS SEPA PT (18-7)","48.7428","-123.5697",,,,"GSPTS           STAT AREA: P018 SEPARATION POINT    P018","GST","GSVI","48.75","-123.5667","N"
"L","4.1","20200203","CDFO","2MS24P020SCRE IS 05","1","JFSPT SCRE IS (20-5)","48.3331","-123.7075",,,,"JFSPT           STAT AREA: P020 SECRETARY ISLAND    P020","WCVI","SWVI","48.3331","-123.7075","N"
"L","4.1","20200203","CDFO","2MS01M140       325","1","NWTR         M140-325",,,,,,"NWTR            PFMAS 25, 125, 27, 127 - MRP SUBS 67, 69","WCVI","NWVI",,,"N"
"L","4.1","20200203","CDFO","2MS23P028HALK PT 02","1","GSPTS HALK PT (28-2)","49.4456","-123.3214",,,,"GSPTS           STAT AREA: P028 HALKETT POINT       P028","GST","GSMS","49.45","-123.3167","N"
"L","4.1","20200203","CDFO","2MS23P028HLEI WL 02","1","GSPTS HLEI WL (28-2)","49.3833","-123.2667",,,,"GSPTS           STAT AREA: P028 HOLE IN WALL        P028","GST","GSMS","49.3833","-123.2667","N"
"L","4.1","20200203","CDFO","2MS23P028KEAT IS 01","1","GSPTS KEAT IS (28-1)","49.3986","-123.4583",,,,"GSPTS           STAT AREA: P028 KEATS ISLAND        P028","GST","GSMS","49.4","-123.4667","N"
"L","4.1","20200203","CDFO","2MS27P121BONI PT 01","1","WSPT  BONI PT (121-1)","48.5942","-124.7161",,,,"WSPT            STAT AREA: P121 BONILLA POINT       P121","WCVI","SWVI","48.5833","-124.7167","N"
"L","4.1","20200203","CDFO","2MS27P124FLRC IT 01","1","WSPT  FLRC IT (124-1)","48.9792","-125.6433",,,,"WSPT            STAT AREA: P124 FLORENCIA ISLET     P124","WCVI","SWVI","48.9792","-125.6433","N"
"L","4.1","20200203","CDFO","2MS27M23BAUST IS 08","1","WSPT  AUST IS (23-8)","48.8629","-125.3149",,,,"WSPT            STAT AREA: M23B AUSTIN ISLAND       M23B","WCVI","SWVI","48.8629","-125.3149","N"
"L","4.1","20200203","CDFO","2MS27M23BKIRB IS 10","1","WSPT  KIRB IS (23-10)","49.0213","-125.3156",,,,"WSPT            STAT AREA: M23B KIRBY ISLAND        M23B","WCVI","SWVI","49.0213","-125.3156","N"
"L","4.1","20200203","CDFO","2M BMP014NORR RK 07","1","BC MARNORR RK (14-7)","49.4842","-124.6481",,,,"BC MARINE       STAT AREA: P014 NORRIS ROCKS        P014","GST","GSVI","49.4842","-124.6481","N"
"L","4.1","20200203","CDFO","2MS27P026FAIR HA 04","1","WSPT  FAIR HA (26-4)","50.0667","-127.135",,,,"WSPT            STAT AREA: P026 FAIR HARBOUR        P026","WCVI","NWVI","50.0667","-127.15","N"
"L","4.1","20200203","CDFO","2MN26P012BONE BY 26","1","CSPT  BONE BY (12-26)","50.5861","-126.3592",,,,"CSPT            STAT AREA: P012 BONES BAY           P012","JNST","JSM","50.5833","-126.35","N"
"L","4.1","20200203","CDFO","2MS61P013FRAN BY 19","1","JSSSPTFRAN BY (13-19)","50.3417","-125.0294",,,,"JSSSPT          STAT AREA: P013 FRANCES BAY         P013","JNST","JSM","50.3417","-125.0294","N"
"L","4.1","20200203","CDFO","2MS11P013       580","1","JSN          P013-580",,,,,,"JSN             DEEP WATER BAY","JNST","JSM","50.1869","-125.3439","N"
"L","4.1","20200203","CDFO","2MS04P013       076","1","GSTR         P013-076",,,,,,"GSTR            CAMPBELL RIVER","GST","GSVI","50.01","-125.22","N"
"L","4.1","20200203","CDFO","2MS22P013CAMP PT 32","1","GSPTN CAMP PT (13-32)","50.3846","-125.82",,,,"GSPTN           STAT AREA: P013 CAMP POINT          P013","JNST","JNSTG","50.3846","-125.82","N"
"L","4.1","20200203","CDFO","2MS22P013CORT IS 15","1","GSPTN CORT IS (13-15)","50.1194","-124.9208",,,,"GSPTN           STAT AREA: P013 CORTES ISLAND       P013","JNST","JSM","50.1194","-124.9208","N"
"L","4.1","20200203","CDFO","2MS22P013CRDE CH 41","1","GSPTN CRDE CH (13-41)","50.4467","-125.2583",,,,"GSPTN           STAT AREA: P013 CORDERO CHANNEL     P013","JNST","JSM","50.45","-125.4167","N"
"L","4.1","20200203","CDFO","2MS22P013RAZA IS 19","1","GSPTN RAZA IS (13-19)","50.3","-124.9994",,,,"GSPTN           STAT AREA: P013 RAZA ISLAND         P013","JNST","JSM","50.3","-125","N"
"L","4.1","20200203","CDFO","2MS22P013READ IS 12","1","GSPTN READ IS (13-12)","50.2314","-125.0864",,,,"GSPTN           STAT AREA: P013 READ ISLAND         P013","JNST","JSM","50.2167","-125.1","N"
"L","4.1","20200203","CDFO","2MS22P015MYRT PT 01","1","GSPTN MYRT PT (15-1)","49.7803","-124.4539",,,,"GSPTN           STAT AREA: P015 MYRTLE POINT        P015","GST","GSMS","49.7833","-124.45","N"
"L","4.1","20200203","CDFO","2MS22P015MYST RF 02","1","GSPTN MYST RF (15-2)","49.9167","-124.7167",,,,"GSPTN           STAT AREA: P015 MYSTERY REEF        P015","GST","GSMN","49.9167","-124.7167","N"
"L","4.1","20200203","CDFO","2MS27P124BARN RK 03","1","WSPT  BARN RK (124-3)","49.3477","-126.2875",,,,"WSPT            STAT AREA: P124 BARNEY ROCKS        P124","WCVI","SWVI","49.3477","-126.2875","N"
"L","4.1","20200203","CDFO","2MS22P014TRIB BY 07","1","GSPTN TRIB BY (14-7)","49.5164","-124.6272",,,,"GSPTN           STAT AREA: P014 TRIBUNE BAY         P014","GST","GSVI","49.5","-124.6167","N"
"L","4.1","20200203","CDFO","2MN26H011CP CAUT","1","CSPT  CP CAUT [H011]","51.1636","-127.7867",,,,"CSPT            STAT AREA: H011 CAPE CAUTION        H011","JNST","JNSTG","51.1636","-127.7867","N"
"L","4.1","20200203","CDFO","2MS23P017DOUG IS 12","1","GSPTS DOUG IS (17-12)","49.3111","-124.1531",,,,"GSPTS           STAT AREA: P017 DOUGLAS ISLAND      P017","GST","GSVI","49.3167","-124.15","N"
"L","4.1","20200203","CDFO","2MS23P017HORS CH 12","1","GSPTS HORS CH (17-12)","49.2242","-123.9358",,,,"GSPTS           STAT AREA: P017 HORSWELL CHANNEL    P017","GST","GSVI","49.2167","-123.9167","N"
"L","4.1","20200203","CDFO","2MS22P013ROD AND 02","1","GSPTN ROD AND (13-2)","49.9333","-125.1833",,,,"GSPTN           STAT AREA: P013 ROD AND REEL        P013","JNST","JSVI","49.9333","-125.1833","N"
"L","4.1","20200203","CDFO","2MS24M19BFIDD RF 04","1","JFSPT FIDD RF (19-4)","48.4294","-123.2839",,,,"JFSPT           STAT AREA: M19B FIDDLE REEF         M19B","GST","GSVI","48.4333","-123.2833","N"
"L","4.1","20200203","CDFO","2MS23P028GAMB IS 02","1","GSPTS GAMB IS (28-2)","49.4931","-123.3931",,,,"GSPTS           STAT AREA: P028 GAMBIER ISLAND      P028","GST","GSMS","49.4833","-123","N"
"L","4.1","20200203","CDFO","2MS27M23BRAIN BY 04","1","WSPT  RAIN BY (23-4)","48.9677","-125.0391",,,,"WSPT            STAT AREA: M23B RAINY BAY           M23B","WCVI","SWVI","48.9677","-125.0391","N"
"L","4.1","20200203","CDFO","2MS27M23BVERN BY 06","1","WSPT  VERN BY (23-6)","48.9884","-125.1461",,,,"WSPT            STAT AREA: M23B VERNON BAY          M23B","WCVI","SWVI","48.9884","-125.1461","N"
"L","4.1","20200203","CDFO","2MS27P025DISC PT 06","1","WSPT  DISC PT (25-6)","49.5856","-126.5575",,,,"WSPT            STAT AREA: P025 DISCOVERY POINT     P025","WCVI","NWVI","49.5856","-126.5575","N"
"L","4.1","20200203","CDFO","2MS27P025TAHS NA 08","1","WSPT  TAHS NA (25-8)","49.8461","-126.7047",,,,"WSPT            STAT AREA: P025 TAHSIS NARROWS      P025","WCVI","NWVI","49.7167","-126.6167","N"
"L","4.1","20200203","CDFO","2MS27P025ZUCI CH 15","1","WSPT  ZUCI CH (25-15)","49.6189","-126.5086",,,,"WSPT            STAT AREA: P025 ZUCIARTE CHANNEL    P025","WCVI","NWVI","49.6","-126.5","N"
"L","4.1","20200203","CDFO","2MS27P026AMAI IN 03","1","WSPT  AMAI IN (26-3)","50.0228","-127.1183",,,,"WSPT            STAT AREA: P026 AMAI INLET          P026","WCVI","NWVI","50.0167","-127.1167","N"
"L","4.1","20200203","CDFO","2MS27P027HARV CV 02","1","WSPT  HARV CV (27-2)","50.4275","-127.9258",,,,"WSPT            STAT AREA: P027 HARVEY COVE         P027","WCVI","NWVI","50.4275","-127.9258","N"
"L","4.1","20200203","CDFO","2MS27P027MAHA RV 07","1","WSPT  MAHA RV (27-7)","50.4668","-127.8107",,,,"WSPT            STAT AREA: P027 MAHATTA RIVER       P027","WCVI","NWVI","50.4668","-127.8107","N"
"L","4.1","20200203","CDFO","2MS61P013PICT PT 25","1","JSSSPTPICT PT (13-25)","50.4675","-125.3975",,,,"JSSSPT          STAT AREA: P013 PICTON POINT        P013","JNST","JSM","50.4667","-125.4","N"
"L","4.1","20200203","CDFO","2MS61P013ROCK BY 28","1","JSSSPTROCK BY (13-28)","50.3314","-125.4772",,,,"JSSSPT          STAT AREA: P013 ROCK BAY            P013","JNST","JNSTG","50.3333","-125.4667","N"
"L","4.1","20200203","CDFO","2MS62P014PALL RK 11","1","GSSPTCPALL RK (14-11)","49.6167","-124.8333",,,,"GSSPTC          STAT AREA: P014 PALLISER ROCK       P014","GST","GSVI","49.6167","-124.8333","N"
"L","4.1","20200203","CDFO","2MS62P014QUAL BE 05","1","GSSPTCQUAL BE (14-5)","49.3556","-124.4514",,,,"GSSPTC          STAT AREA: P014 QUALICUM BEACH      P014","GST","GSVI","49.3556","-124.4514","N"
"L","4.1","20200203","CDFO","2MS62P014QUAL BY 05","1","GSSPTCQUAL BY (14-5)","49.4092","-124.6283",,,,"GSSPTC          STAT AREA: P014 QUALICUM BAY        P014","GST","GSVI","49.4092","-124.6283","N"
"L","4.1","20200203","CDFO","2MS62P014SEAL BY 13","1","GSSPTCSEAL BY (14-13)","49.7656","-124.9642",,,,"GSSPTC          STAT AREA: P014 SEAL BAY            P014","GST","GSVI","49.7656","-124.9642","N"
"L","4.1","20200203","CDFO","2MS62P015SLIAMMO 02","1","GSSPTCSLIAMMO (15-2)","49.8972","-124.6083",,,,"GSSPTC          STAT AREA: P015 SLIAMMON            P015","GST","GSMN","49.8833","-124.6","N"
"L","4.1","20200203","CDFO","2MS62P015TWIN IS 03","1","GSSPTCTWIN IS (15-3)","50.0294","-124.9328",,,,"GSSPTC          STAT AREA: P015 TWIN ISLANDS        P015","GST","GSMN","50.0167","-124.9167","N"
"L","4.1","20200203","CDFO","2MS62P015VIVI IS 02","1","GSSPTCVIVI IS (15-2)","48.8406","-124.7011",,,,"GSSPTC          STAT AREA: P015 VIVIAN ISLAND       P015","GST","GSMN","48.8406","-124.7011","N"
"L","4.1","20200203","CDFO","2MS62P016BUCC BY 01","1","GSSPTCBUCC BY (16-1)","49.5011","-123.9878",,,,"GSSPTC          STAT AREA: P016 BUCCANEER BAY       P016","GST","GSMS","49.5","-123.9833","N"
"L","4.1","20200203","CDFO","2MS62P016GILL BY 21","1","GSSPTCGILL BY (16-21)","49.6661","-124.4789",,,,"GSSPTC          STAT AREA: P016 GILLIES BAY         P016","GST","GSMS","49.6667","-124.4833","N"
"L","4.1","20200203","CDFO","2MS62P016HALF BY 01","1","GSSPTCHALF BY (16-1)","49.5014","-123.925",,,,"GSSPTC          STAT AREA: P016 HALFMOON BAY        P016","GST","GSMS","49.5","-123.9333","N"
"L","4.1","20200203","CDFO","2MS62P016MOUA BY 21","1","GSSPTCMOUA BY (16-21)","49.6394","-124.4511",,,,"GSSPTC          STAT AREA: P016 MOUAT BAY           P016","GST","GSMS","49.6394","-124.4511","N"
"L","4.1","20200203","CDFO","2MS62P016PILINGS 18","1","GSSPTCPILINGS (16-18)","49.6313","-124.2817",,,,"GSSPTC          STAT AREA: P016 PILINGS             P016","GST","GSMS","49.65","-124.2833","N"
"L","4.1","20200203","CDFO","2MS27H025BURD PT","1","WSPT  BURD PT [H025]","49.5789","-126.5692",,,,"WSPT            STAT AREA: H025 BURDWOOD POINT      H025","WCVI","WCVIG","49.5789","-126.5692","N"
"L","4.1","20200203","CDFO","2MS27H025CENT IS","1","WSPT  CENT IS [H025]","49.8469","-126.9306",,,,"WSPT            STAT AREA: H025 CENTRE ISLAND       H025","WCVI","NWVI","49.8469","-126.9306","N"
"L","4.1","20200203","CDFO","2MS70M23A       000","1","AIEO         M23A-000",,,,,,"AIEO            PFMA 23 (Alberni Inlet: 23-1, 23-2) (MRP AREA 23A)","WCVI","SWVI","49.104","-124.83","N"
"L","4.1","20200203","CDFO","2MS85P018       172","1","GSRESSPT     P018-172",,,,,,"GSRESSPT        SANSUM NARROWS (PFMA SUBS 18-7, -8)","GST","GSVI","48.74","-123.57","N"
"L","4.1","20200203","CDFO","2MSAIM23A       054","1","AIGNEO       M23A-054",,,,,,"AIGNEO          INSIDE SURFLINE - ALBERNI INLET PFMA SUBS 23-1, -2","WCVI","SWVI","49.104","-124.83","N"
"L","4.1","20200203","CDFO","2MSAIM23A       723","1","AIGNEO       M23A-723",,,,,,"AIGNEO          MOUTH OF SOMASS RIVER TO LONE TREE POINT (PFMA SUB 23-1)","WCVI","SWVI","49.226","-124.826","N"
"L","4.1","20200203","CDFO","2MS27P124HYSO BK 01","1","WSPT  HYSO BK (124-1)","48.8971","-125.8946",,,,"WSPT            STAT AREA: P124 HYSON BANK          P124","WCVI","SWVI","48.896","-125.8851","N"
"L","4.1","20200203","CDFO","2MS23M19ASAAN BY","1","GSPTS SAAN BY (M19A)","48.5983","-123.3839",,,,"GSPTS           STAT AREA: M19A SAANICHTON BAY      M19A","GST","GSVI","48.5983","-123.3839","N"
"L","4.1","20200203","CDFO","2MS62P016GARD BY 17","1","GSSPTCGARD BY (16-17)","49.6294","-124.0225",,,,"GSSPTC          STAT AREA: P016 GARDEN BAY          P016","GST","GSMS","49.6294","-124.0225","N"
"L","4.1","20200203","CDFO","2MS27P127CP SCTO 03","1","WSPT  CP SCTO (127-3)","50.7741","-128.4472",,,,"WSPT            STAT AREA: P127 CAPE SCOTT          P127","WCVI","NWVI","50.7741","-128.4472","N"
"L","4.1","20200203","CDFO","2MS27P127SOLA IS 02","1","WSPT  SOLA IS (127-2)","50.1114","-127.9403",,,,"WSPT            STAT AREA: P127 SOLANDER ISLAND     P127","WCVI","NWVI","50.1167","-127.9333","N"
"L","4.1","20200203","CDFO","2MS27H024LENN IO","1","WSPT  LENN IO [H024]",,,,,,"WSPT            STAT AREA: H024 LENNARD ISLAND      H024","WCVI","SWVI",,,"N"
"L","4.1","20200203","CDFO","2MS27H027KWAK PT","1","WSPT  KWAK PT [H027]","50.3494","-127.9953",,,,"WSPT            STAT AREA: H027 KWAKIUTL POINT      H027","WCVI","NWVI","50.3494","-127.9953","N"
"L","4.1","20200203","CDFO","2MS27H024CLFF PT","1","WSPT  CLFF PT [H024]","49.2839","-126.0336",,,,"WSPT            STAT AREA: H024 CLIFFORD POINT      H024","WCVI","SWVI","49.2839","-126.0336","N"
"L","4.1","20200203","CDFO","2FS99GSMNR0319","1","R-SQUAMISH R",,,,,,"CDN ESCMENT     SQUAMISH R           GSMN","GST","GSMS","49.685","-123.181","N"
"L","4.1","20200203","CDFO","2FS99GSVIR0277","1","R-OYSTER R",,,,,,"CDN ESCMENT     OYSTER R             GSVI","GST","GSVI","49.8725","-125.1158","N"
"L","4.1","20200203","CDFO","2MS22P015POWE RV 02","1","GSPTN POWE RV (15-2)","49.8356","-124.5244",,,,"GSPTN           STAT AREA: P015 POWELL RIVER        P015","GST","GSMN","49.8667","-124.5667","N"
"L","4.1","20200203","CDFO","2MS22P016CAPT IS 11","1","GSPTN CAPT IS (16-11)","49.7842","-123.9858",,,,"GSPTN           STAT AREA: P016 CAPTAIN ISLAND      P016","GST","GSMS","49.7833","-123.9833","N"
"L","4.1","20200203","CDFO","2MS23P29MTRAI IS 01","1","GSPTS TRAI IS (29-1)","49.4517","-123.8017",,,,"GSPTS           STAT AREA: P29M TRAIL ISLANDS       P29M","GST","GSMS","49.4517","-123.8017","N"
"L","4.1","20200203","CDFO","2MS22P016YOUN PT 01","1","GSPTN YOUN PT (16-1)","49.4386","-124.1733",,,,"GSPTN           STAT AREA: P016 YOUNG POINT         P016","GST","GSMS","49.45","-124.15","N"
"L","4.1","20200203","CDFO","2MS22P014SHIN SP 07","1","GSPTN SHIN SP (14-7)","49.5164","-124.6997",,,,"GSPTN           STAT AREA: P014 SHINGLE SPIT        P014","GST","GSVI","49.5167","-124.7333","N"
"L","4.1","20200203","CDFO","2MS27H23BELLI IO","1","WSPT  ELLI IO [H23B]",,,,,,"WSPT            STAT AREA: H23B ELLIS ISLET         H23B","WCVI","SWVI",,,"N"
"L","4.1","20200203","CDFO","2MS27P124CLEL IS 03","1","WSPT  CLEL IS (124-3)","49.1714","-126.0914",,,,"WSPT            STAT AREA: P124 CLELAND ISLAND      P124","WCVI","SWVI","49.1714","-126.0914","N"
"L","4.1","20200203","CDFO","2MS27P027PR ALIC 08","1","WSPT  PR ALIC (27-8)","50.4267","-127.4881",,,,"WSPT            STAT AREA: P027 PORT ALICE          P027","WCVI","NWVI","50.3833","-127.45","N"
"L","4.1","20200203","CDFO","2MS61P013WILB SH 01","1","JSSSPTWILB SH (13-1)","49.991","-125.1639",,,,"JSSSPT          STAT AREA: P013 WILBY SHOALS        P013","GST","GSTG","49.991","-125.1639","N"
"L","4.1","20200203","CDFO","2MS62P014BAYN SD 08","1","GSSPTCBAYN SD (14-8)","49.5194","-124.8125",,,,"GSSPTC          STAT AREA: P014 BAYNES SOUND        P014","GST","GSVI","49.5194","-124.8125","N"
"L","4.1","20200203","CDFO","2MS62P014CHRO IS 05","1","GSSPTCCHRO IS (14-5)","49.4722","-124.6847",,,,"GSSPTC          STAT AREA: P014 CHROME ISLAND       P014","GST","GSVI","49.4722","-124.6847","N"
"L","4.1","20200203","CDFO","2MS62P014NILE CR 05","1","GSSPTCNILE CR (14-5)","49.42","-124.6403",,,,"GSSPTC          STAT AREA: P014 NILE CREEK          P014","GST","GSVI","49.42","-124.6403","N"
"L","4.1","20200203","CDFO","2MS23P29MMCCA BK 02","1","GSPTS MCCA BK (29-2)","49.3333","-123.65",,,,"GSPTS           STAT AREA: P29M MCCALL BANK         P29M","GST","GSMS","49.3333","-123.65","N"
"L","4.1","20200203","CDFO","2MS27H026SPRI IS","1","WSPT  SPRI IS [H026]","50.0042","-127.4197",,,,"WSPT            STAT AREA: H026 TLE:HOH ISLAND      H026","WCVI","NWVI","50.0042","-127.4197","N"
"L","4.1","20200203","CDFO","2MS27H027LIPP PT","1","WSPT  LIPP PT [H027]","50.4717","-128.1075",,,,"WSPT            STAT AREA: H027 LIPPY POINT         H027","WCVI","NWVI","50.4717","-128.1075","N"
"L","4.1","20200203","CDFO","2MSTSH024       182","1","TAAQS        H024-182",,,,,,"TAAQS           CLAYOQUOT SD. (PFMA SUBS 24-1 to -14 INSIDE SURFLINE)","WCVI","SWVI","49.23","-126.07","N"
"L","4.1","20200203","CDFO","2M BMP124HYSO BK 01","1","BC MARHYSO BK (124-1)","48.8971","-125.8946",,,,"BC MARINE       STAT AREA: P124 HYSON BANK          P124","WCVI","SWVI","48.8971","-125.8946","N"
"L","4.1","20200203","CDFO","2M BMP124WILF RK 03","1","BC MARWILF RK (124-3)","49.1405","-125.9711",,,,"BC MARINE       STAT AREA: P124 WILF ROCK           P124","WCVI","SWVI","49.1405","-125.9711","N"
"L","4.1","20200203","CDFO","2MS61P013QATA RV 19","1","JSSSPTQATA RV (13-19)","50.3781","-124.9378",,,,"JSSSPT          STAT AREA: P013 QUATAM RIVER        P013","JNST","JSM","50.3781","-124.9378","N"
"L","4.1","20200203","CDFO","2MSTNP026       000","1","TAAQN        P026-000",,,,,,"TAAQN           PFMA 26 - Union Island, Solander Island","WCVI","NWVI",,,"N"
"L","4.1","20200203","CDFO","2F 29FWNSDEWD CK","1","FWSPT DEWD CK [FWNS]","49.4739","-121.2553",,,,"FWSPT           STAT AREA: FWNS DEWDNEY CREEK       FWNS","GST","GSMS","49.3667","-121.4","N"
"L","4.1","20200203","CDFO","2MS22P016CULL PT 11","1","GSPTN CULL PT (16-11)","49.8","-124.0783",,,,"GSPTN           STAT AREA: P016 CULLODEN POINT      P016","GST","GSMS","49.8","-124.0833","N"
"L","4.1","20200203","CDFO","2MS23P017MIAM IT 04","1","GSPTS MIAM IT (17-4)","49.0375","-123.7097",,,,"GSPTS           STAT AREA: P017 MIAMI ISLET         P017","GST","GSVI","49.0333","-123.7167","N"
"L","4.1","20200203","CDFO","2MS27H024TOFINOU","1","WSPT  TOFINOU [H024]",,,,,,"WSPT            STAT AREA: H024 TOFINO UNKN 24, 124 H024","WCVI","SWVI","49.1582","-125.9063","N"
"L","4.1","20200203","CDFO","2MS27M23BALLE PT 06","1","WSPT  ALLE PT (23-6)","48.9737","-125.1377",,,,"WSPT            STAT AREA: M23B ALLEN POINT         M23B","WCVI","SWVI","48.9737","-125.1377","N"
"L","4.1","20200203","CDFO","2MS02H024       602","1","SWTR         H024-602",,,,,,"SWTR            RAFAEL POINT (AHOUSAT)","WCVI","SWVI","49.2833","-126.2333","N"
"L","4.1","20200203","CDFO","2MS22P016CALD IS 11","1","GSPTN CALD IS (16-11)","49.7436","-124.0453",,,,"GSPTN           STAT AREA: P016 CALDWELL ISLAND     P016","GST","GSMS","49.75","-124.0333","N"
"L","4.1","20200203","CDFO","2MS22P013QATA RV 19","1","GSPTN QATA RV (13-19)","50.3781","-124.9378",,,,"GSPTN           STAT AREA: P013 QUATAM RIVER        P013","JNST","JSM","50.3833","-124.9333","N"
"L","4.1","20200203","CDFO","2MS27P123SAIL RK","1","WSPT  SAIL RK (P123)","48.8807","-125.3953",,,,"WSPT            STAT AREA: P123 SAIL ROCK           P123","WCVI","SWVI","48.8807","-125.3953","N"
"L","4.1","20200203","CDFO","2MS62P014PACI PL 13","1","GSSPTCPACI PL (14-13)","49.8725","-125.1158",,,,"GSSPTC          STAT AREA: P014 PACIFIC PLAYGROUNDS P014","GST","GSVI","49.8667","-125.1167","N"
"L","4.1","20200203","CDFO","2MS02H024       604","1","SWTR         H024-604",,,,,,"SWTR            LENNARD ISLAND","WCVI","SWVI","49.1111","-125.9225","N"
"L","4.1","20200203","CDFO","2MS02H024       676","1","SWTR         H024-676",,,,,,"SWTR            HOT SPRINGS COVE","WCVI","SWVI","49.3617","-126.2681","N"
"L","4.1","20200203","CDFO","2MS22P016BEAR RK 20","1","GSPTN BEAR RK (16-20)","49.5322","-124.3831",,,,"GSPTN           STAT AREA: P016 BEAR ROCKS          P016","GST","GSMS","49.5167","-124.3833","N"
"L","4.1","20200203","CDFO","2MS22P013BEAR PT 30","1","GSPTN BEAR PT (13-30)","50.3669","-125.6713",,,,"GSPTN           STAT AREA: P013 BEAR POINT          P013","JNST","JNSTG","50.3669","-125.6713","N"
"L","4.1","20200203","CDFO","2MS22P016BARG BY 03","1","GSPTN BARG BY (16-3)","49.6122","-124.0392",,,,"GSPTN           STAT AREA: P016 BARGAIN BAY         P016","GST","GSMS","49.6167","-124.0333","N"
"L","4.1","20200203","CDFO","2MS22P016BULL PS 19","1","GSPTN BULL PS (16-19)","49.4936","-124.2169",,,,"GSPTN           STAT AREA: P016 BULL PASSAGE        P016","GST","GSMS","49.4833","-124.2","N"
"L","4.1","20200203","CDFO","2MS22P016MADE PA 17","1","GSPTN MADE PA (16-17)","49.6167","-124.0167",,,,"GSPTN           STAT AREA: P016 MADEIRA PARK        P016","GST","GSMS","49.6167","-124.0333","N"
"L","4.1","20200203","CDFO","2FS77M123SARM WE","1","FRFNSSSARM WE [M123]","49.1667","-122.8333",,,,"FRFNSS          STAT AREA: M123 FRASER:S.ARM INN.(W)M123","GST","GSMS","49.1667","-122.8333","N"
"L","4.1","20200203","CDFO","2MS22P014PROW PT 03","1","GSPTN PROW PT (14-3)","49.4875","-124.3617",,,,"GSPTN           STAT AREA: P014 PROWSE POINT        P014","GST","GSVI","49.4875","-124.3617","N"
"L","4.1","20200203","CDFO","2MS22P014QUAL BY 05","1","GSPTN QUAL BY (14-5)","49.4092","-124.6283",,,,"GSPTN           STAT AREA: P014 QUALICUM BAY        P014","GST","GSVI","49.4092","-124.6283","N"
"L","4.1","20200203","CDFO","2MS23P028COPP CV 02","1","GSPTS COPP CV (28-2)","49.3792","-123.2789",,,,"GSPTS           STAT AREA: P028 COPPER COVE         P028","GST","GSMS","49.3833","-123.2833","N"
"L","4.1","20200203","CDFO","2MS22P013BREAKWA 05","1","GSPTN BREAKWA (13-5)","50.05","-125.25",,,,"GSPTN           STAT AREA: P013 BREAKWATER          P013","JNST","JSVI","50.05","-125.25","N"
"L","4.1","20180206","CDFO","2MS23P029COWA PT","1","GSPTS COWA PT (P029)",,,,,,"GSPTS           STAT AREA: P029 DO NOT USE SEE PT COP029","GST","GSTG",,,"N"
"L","4.1","20200203","CDFO","2MS24P020PR RENF 01","1","JFSPT PR RENF (20-1)","48.55","-124.4167",,,,"JFSPT           STAT AREA: P020 PORT RENFREW        P020","WCVI","SWVI","48.5333","-124.4167","N"
"L","4.1","20200203","CDFO","2MS23P018DROP OF 11","1","GSPTS DROP OF (18-11)","48.95","-123.0833",,,,"GSPTS           STAT AREA: P018 DROP OFF            P018","GST","GSVI","48.95","-123.0833","N"
"L","4.1","20200203","CDFO","2MS23P018FERN IS 06","1","GSPTS FERN IS (18-6)","48.6797","-123.3939",,,,"GSPTS           STAT AREA: P018 FERNIE ISLAND       P018","GST","GSVI","48.6833","-123.3833","N"
"L","4.1","20200203","CDFO","2MS23P018MUSG PT 07","1","GSPTS MUSG PT (18-7)","48.7483","-123.5514",,,,"GSPTS           STAT AREA: P018 MUSGRAVE POINT      P018","GST","GSVI","48.75","-123.55","N"
"L","4.1","20200203","CDFO","2MS23P018PORT IS 06","1","GSPTS PORT IS (18-6)","48.7261","-123.3731",,,,"GSPTS           STAT AREA: P018 PORTLAND ISLAND     P018","GST","GSVI","48.7333","-123.3667","N"
"L","4.1","20200203","CDFO","2MS23P018SATE CH 06","1","GSPTS SATE CH (18-6)","48.7061","-123.4908",,,,"GSPTS           STAT AREA: P018 SATELLITE CHANNEL   P018","GST","GSVI","48.7","-123.4667","N"
"L","4.1","20200203","CDFO","2MS08P29M       000","1","FGN          P29M-000",,,,,,"FGN             PFMA 29 Marine - Remaining southern Strait of Georgia marine waters","GST","GSTG",,,"N"
"L","4.1","20200203","CDFO","2MS27M23BADAM RK 05","1","WSPT  ADAM RK (23-5)","48.9005","-125.1379",,,,"WSPT            STAT AREA: M23B ADAMSON ROCKS       M23B","WCVI","SWVI","48.9005","-125.1379","N"
"L","4.1","20200203","CDFO","2MS27M23BAL R IS 06","1","WSPT  AL R IS (23-6)","48.9628","-125.1952",,,,"WSPT            STAT AREA: M23B ALMA RUSSELL ISLAND M23B","WCVI","SWVI","48.9628","-125.1952","N"
"L","4.1","20180206","CDFO","2MS27P123MARA RK 11","1","WSPT  MARA RK (23-11)","48.873","-125.4765",,,,"WSPT            STAT AREA: P123 MARA ROCK           P123","WCVI","SWVI","48.873","-125.4765","N"
"L","4.1","20200203","CDFO","2MS23P028MIDC MA 07","1","GSPTS MIDC MA (28-7)","49.3","-123.2",,,,"GSPTS           STAT AREA: P028 MID CHANNEL MARKER  P028","GST","GSMS","49.3","-123.2","N"
"L","4.1","20200203","CDFO","2MS22P015KING IS 05","1","GSPTN KING IS (15-5)","50.0831","-124.8483",,,,"GSPTN           STAT AREA: P015 KINGHORN ISLAND     P015","GST","GSMN","50.0833","-124.8333","N"
"L","4.1","20200203","CDFO","2FS99NWVIR1381","1","R-CONUMA EST",,,,,,"CDN ESCMENT     CONUMA EST           NWVI","WCVI","NWVI","49.795","-126.442","N"
"L","4.1","20200203","CDFO","2FS99GSVIR1879","1","R-CHEF CR",,,,,,"CDN ESCMENT     CHEF CR              GSVI","GST","GSVI","49.448","-124.756","N"
"L","4.1","20200203","CDFO","2MS27M23BTAPA BY 07","1","WSPT  TAPA BY (23-7)","48.8039","-125.1858",,,,"WSPT            STAT AREA: M23B TAPALTOS BAY        M23B","WCVI","SWVI","48.8039","-125.1858","N"
"L","4.1","20200203","CDFO","2MS27P025CRIT CV 04","1","WSPT  CRIT CV (25-4)","49.7091","-126.5045",,,,"WSPT            STAT AREA: P025 CRITTER COVE        P025","WCVI","NWVI","49.7091","-126.5045","N"
"L","4.1","20200203","CDFO","2MS27P025DESC PT 04","1","WSPT  DESC PT (25-4)","49.6864","-126.5",,,,"WSPT            STAT AREA: P025 DESCUBIERTA POINT   P025","WCVI","NWVI","49.6833","-126.5","N"
"L","4.1","20200203","CDFO","2MS22P015KLAHANI 02","1","GSPTN KLAHANI (15-2)","49.902","-124.6294",,,,"GSPTN           STAT AREA: P015 KLAHANIE            P015","GST","GSMN","49.9","-124.6167","N"
"L","4.1","20200203","CDFO","2MS62P015DEAN PT 05","1","GSSPTCDEAN PT (15-5)","50.2861","-124.7867",,,,"GSSPTC          STAT AREA: P015 DEAN POINT          P015","GST","GSMN","50.2833","-124.7833","N"
"L","4.1","20180206","CDFO","2MS23P029MISS PT 01","1","GSPTS MISS PT (29-1)","49.4392","-123.7244",,,,"GSPTS           STAT AREA: P029 MISSION POINT       P029","GST","GSMS","49.4333","-123.7167","N"
"L","4.1","20200203","CDFO","2MS27M23BBENS IS 08","1","WSPT  BENS IS (23-8)","48.8842","-125.3829",,,,"WSPT            STAT AREA: M23B BENSON ISLAND       M23B","WCVI","SWVI","48.8842","-125.3829","N"
"L","4.1","20200203","CDFO","2M BMP017GABR IS 13","1","BC MARGABR IS (17-13)","49.1597","-123.7894",,,,"BC MARINE       STAT AREA: P017 GABRIOLA ISLAND     P017","GST","GSVI","49.1597","-123.7894","N"
"L","4.1","20200203","CDFO","2MS22P014CHRO LT 05","1","GSPTN CHRO LT (14-5)","49.4722","-124.6847",,,,"GSPTN           STAT AREA: P014 CHROME LIGHT        P014","GST","GSVI","49.4722","-124.6847","N"
"L","4.1","20200203","CDFO","2MS22P015MINK IS 05","1","GSPTN MINK IS (15-5)","50.1083","-124.7658",,,,"GSPTN           STAT AREA: P015 MINK ISLAND         P015","GST","GSMN","50.1","-125.7667","N"
"L","4.1","20200203","CDFO","2MS62P014LITT RV 13","1","GSSPTCLITT RV (14-13)","49.7372","-124.9034",,,,"GSSPTC          STAT AREA: P014 LITTLE RIVER        P014","GST","GSVI","49.7372","-124.9034","N"
"L","4.1","20200203","CDFO","2MS22P014RED HOU 08","1","GSPTN RED HOU (14-8)","49.5","-124.8333",,,,"GSPTN           STAT AREA: P014 RED HOUSE           P014","GST","GSVI","49.5","-124.8333","N"
"L","4.1","20200203","CDFO","2MS22P016NELS RK 17","1","GSPTN NELS RK (16-17)","49.65","-124.1167",,,,"GSPTN           STAT AREA: P016 NELSON ROCK         P016","GST","GSMS","49.65","-124.1167","N"
"L","4.1","20200203","CDFO","2MS22P013TYEE SP 03","1","GSPTN TYEE SP (13-3)","50.0478","-125.2525",,,,"GSPTN           STAT AREA: P013 TYEE SPIT           P013","JNST","JNSTG","50.05","-125.25","N"
"L","4.1","20200203","CDFO","2MS22P015ATRE RF 02","1","GSPTN ATRE RF (15-2)","49.9167","-124.6667",,,,"GSPTN           STAT AREA: P015 ATREVIDA REEF       P015","GST","GSMN","49.9167","-124.6667","N"
"L","4.1","20200203","CDFO","2MSTSM23B       000","1","TAAQS        M23B-000",,,,,,"TAAQS           PMFA 23 - Barkley Sound Portion","WCVI","SWVI","48.849967","-125.383608","N"
"L","4.1","20200203","CDFO","2MSTSP123       000","1","TAAQS        P123-000",,,,,,"TAAQS           PFMA 123 - Open water southwest of Ucluelet","WCVI","SWVI","48.4","-126.1","N"
"L","4.1","20200203","CDFO","2MS62P015TEXA IS","1","GSSPTCTEXA IS (P015)","49.6525","-124.3908",,,,"GSSPTC          STAT AREA: P015 TEXADA ISLAND       P015","GST","GSMS","49.6525","-124.3908","N"
"L","4.1","20200203","CDFO","2MS62P014MIST IS 01","1","GSSPTCMIST IS (14-1)","49.3228","-124.2186",,,,"GSSPTC          STAT AREA: P014 MISTAKEN ISLAND     P014","GST","GSVI","49.3228","-124.2186","N"
"L","4.1","20200203","CDFO","2FS99GSVIH0100","1","H-BIG QUALICUM R",,,,,,"CDN ESCMENT     BIG QUALICUM R       GSVI","GST","GSVI","49.382","-124.6439","N"
"L","4.1","20200203","CDFO","2MS22P014PHIP PT 10","1","GSPTN PHIP PT (14-10)","49.5353","-124.7131",,,,"GSPTN           STAT AREA: P014 PHIPPS POINT        P014","GST","GSVI","49.5333","-124.7167","N"
"L","4.1","20200203","CDFO","2MS23P017MUDE IS 18","1","GSPTS MUDE IS (17-18)","49.2706","-124.0817",,,,"GSPTS           STAT AREA: P017 MAUDE ISLAND        P017","GST","GSVI","49.2706","-124.0817","N"
"L","4.1","20200203","CDFO","2MS22P015TENE BY 05","1","GSPTN TENE BY (15-5)","50.1172","-124.7053",,,,"GSPTN           STAT AREA: P015 TENEDOS BAY         P015","GST","GSMN","50.1167","-124.7","N"
"L","4.1","20200203","CDFO","2MS22P016A FRAME 17","1","GSPTN A FRAME (16-17)","49.65","-124.0667",,,,"GSPTN           STAT AREA: P016 A FRAME             P016","GST","GSMS","49.65","-124.0667","N"
"L","4.1","20200203","CDFO","2FS99JNSTR0432","1","R-WOSS R",,,,,,"CDN ESCMENT     WOSS R               JNST","JNST","JSVI","50.216","-126.634","N"
"L","4.1","20200203","CDFO","2MS27H025BAJO PT","1","WSPT  BAJO PT [H025]","49.6183","-126.8267",,,,"WSPT            STAT AREA: H025 BAJO POINT          H025","WCVI","NWVI","49.6183","-126.8267","N"
"L","4.1","20200203","CDFO","2MS62P014DENM IS 10","1","GSSPTCDENM IS (14-10)","49.5458","-124.7919",,,,"GSSPTC          STAT AREA: P014 DENMAN ISLAND       P014","GST","GSVI","49.5458","-124.7919","N"
"L","4.1","20200203","CDFO","2MS02H023       739","1","SWTR         H023-739",,,,,,"SWTR            TROLL ZONE 8 (part of PFMAs 121, 123)","WCVI","SWVI","48.63","-125.75","N"
"L","4.1","20200203","CDFO","2MN26P012PLUM IS 05","1","CSPT  PLUM IS (12-5)","50.5861","-126.7847",,,,"CSPT            STAT AREA: P012 PLUMPER ISLANDS     P012","JNST","JNSTG","50.5833","-126.7833","N"
"L","4.1","20200203","CDFO","2MS22P016CRES BY 22","1","GSPTN CRES BY (16-22)","49.77","-124.6283",,,,"GSPTN           STAT AREA: P016 CRESCENT BAY        P016","GST","GSMS","49.7667","-124.6333","N"
"L","4.1","20200203","CDFO","2F 29M299DUMP BR","1","FWSPT DUMP BR [M299]","49.1333","-123.0667",,,,"FWSPT           STAT AREA: M299 FRASER:DUMP BAR     M299","GST","GSMS","49.1333","-123.0667","N"
"L","4.1","20200203","CDFO","2MS11P012       611","1","JSN          P012-611",,,,,,"JSN             BLACKNEY PASS","JNST","JSM","50.5639","-126.6869","N"
"L","4.1","20200203","CDFO","2MS22P013VOND IN 17","1","GSPTN VOND IN (13-17)","50.1833","-124.9803",,,,"GSPTN           STAT AREA: P013 VON DONOP INLET     P013","JNST","JSM","50.1833","-124.9803","N"
"L","4.1","20200203","CDFO","2MS22P014FREN CR 01","1","GSPTN FREN CR (14-1)","49.35","-124.35",,,,"GSPTN           STAT AREA: P014 FRENCH CREEK        P014","GST","GSVI","49.35","-124.35","N"
"L","4.1","20200203","CDFO","2MS23P018PLUM SD 05","1","GSPTS PLUM SD (18-5)","48.7778","-123.2208",,,,"GSPTS           STAT AREA: P018 PLUMPER SOUND       P018","GST","GSVI","48.7833","-123.25","N"
"L","4.1","20200203","CDFO","2MS62P016EPSO PT 01","1","GSSPTCEPSO PT (16-1)","49.5042","-124.0167",,,,"GSSPTC          STAT AREA: P016 EPSOM POINT         P016","GST","GSMS","49.5042","-124.0167","N"
"L","4.1","20200203","CDFO","2MS22P016SABI CH 19","1","GSPTN SABI CH (16-19)","49.5311","-124.2789",,,,"GSPTN           STAT AREA: P016 SABINE CHANNEL      P016","GST","GSMS","49.5","-124.1833","N"
"L","4.1","20200203","CDFO","2MS27P123JENN RF 03","1","WSPT  JENN RF (123-3)","48.9166","-125.5167",,,,"WSPT            STAT AREA: P123 JENNY REEF          P123","WCVI","SWVI","48.9166","-125.5167","N"
"L","4.1","20200203","CDFO","2MS22P013ARRA RP 23","1","GSPTN ARRA RP (13-23)","50.4214","-125.1356",,,,"GSPTN           STAT AREA: P013 ARRAN RAPIDS        P013","JNST","JSM","50.4214","-125.1356","N"
"L","4.1","20200203","CDFO","2MS22P013OVER FA 20","1","GSPTN OVER FA (13-20)","50.4167","-125.1167",,,,"GSPTN           STAT AREA: P013 OVER FALLS          P013","JNST","JSM","50.4167","-125.1167","N"
"L","4.1","20200203","CDFO","2MS22P014NASH BK 07","1","GSPTN NASH BK (14-7)","49.5167","-124.6333",,,,"GSPTN           STAT AREA: P014 NASH BANK           P014","GST","GSVI","49.5167","-124.6333","N"
"L","4.1","20200203","CDFO","2MS23P017BOOT BY 09","1","GSPTS BOOT BY (17-9)","48.8647","-123.5636",,,,"GSPTS           STAT AREA: P017 BOOTH BAY           P017","GST","GSVI","48.8667","-123.55","N"
"L","4.1","20200203","CDFO","2MS27P025NOOT IS 14","1","WSPT  NOOT IS (25-14)","49.7431","-126.7694",,,,"WSPT            STAT AREA: P025 NOOTKA ISLAND       P025","WCVI","NWVI","49.75","-126.75","N"
"L","4.1","20200203","CDFO","2MS22P015CORT BY 03","1","GSPTN CORT BY (15-3)","50.06","-124.9206",,,,"GSPTN           STAT AREA: P015 CORTES BAY          P015","GST","GSMN","50.0667","-124.9333","N"
"L","4.1","20200203","CDFO","2F 290FW HARR CK","1","FWSPT HARR CK [FW]","48.5822","-124.2756",,,,"FWSPT           STAT AREA: 0FW HARRIS CREEK        0FW","WCVI","SWVI","48.5667","-124.3833","N"
"L","4.1","20200203","CDFO","2FS99GSMNR0444","1","R-LANG CR",,,,,,"CDN ESCMENT     LANG CR              GSMN","GST","GSMS","49.783","-124.375","N"
"L","4.1","20200203","CDFO","2MS22P015FROL BY 01","1","GSPTN FROL BY (15-1)","49.7561","-124.2956",,,,"GSPTN           STAT AREA: P015 FROLANDER BAY       P015","GST","GSMS","49.7561","-124.2956","N"
"L","4.1","20200203","CDFO","2FS99GSMNR0047","1","R-35 1/2 MILE CR",,,,,,"CDN ESCMENT     35 1/2 MILE CR       GSMN","GST","GSTG",,,"N"
"L","4.1","20200203","CDFO","2F 29FWNSDEWD SL","1","FWSPT DEWD SL [FWNS]","49.1806","-122.1014",,,,"FWSPT           STAT AREA: FWNS DEWDNEY SLOUGH      FWNS","GST","GSMS","49.1806","-122.1014","N"
"L","4.1","20200203","CDFO","2MS22P014BEAC MR 01","1","GSPTN BEAC MR (14-1)","49.3058","-124.2167",,,,"GSPTN           STAT AREA: P014 BEACHCOMBERS MARINA P014","GST","GSVI","49.3","-124.2","N"
"L","4.1","20200203","CDFO","2MS27P123LOUD CO 03","1","WSPT  LOUD CO (123-3)",,,,,,"WSPT            STAT AREA: P123 LOUDOUN CHANNEL     P123","WCVI","SWVI",,,"N"
"L","4.1","20200203","CDFO","2MS27H027KAIN PT","1","WSPT  KAIN PT [H027]","50.4625","-128.0294",,,,"WSPT            STAT AREA: H027 KAINS POINT         H027","WCVI","NWVI","50.4625","-128.0294","N"
"L","4.1","20200203","CDFO","2MS62P016THOR IS 01","1","GSSPTCTHOR IS (16-1)","49.5028","-124.0025",,,,"GSSPTC          STAT AREA: P016 THORMANBY ISLANDS   P016","GST","GSMS","49.5","-124.0167","N"
"L","4.1","20200203","CDFO","2MS27M23BFLEM IS 04","1","WSPT  FLEM IS (23-4)","48.8864","-125.1367",,,,"WSPT            STAT AREA: M23B FLEMING ISLAND      M23B","WCVI","SWVI","48.8864","-125.1367","N"
"L","4.1","20200203","CDFO","2F 29M301DUNC BR","1","FWSPT DUNC BR [M301]","49.1528","-122.4049",,,,"FWSPT           STAT AREA: M301 FRASER:DUNCAN BAR   M301","GST","GSMS","49.1528","-122.4049","N"
"L","4.1","20200203","CDFO","2MS28M23AMACK CR 01","1","ACSPT MACK CR (23-1)","49.1102","-124.8194",,,,"ACSPT           STAT AREA: M23A MACKTUSH CREEK      M23A","WCVI","SWVI","49.1102","-124.8194","N"
"L","4.1","20200203","CDFO","2MS61P013PLUN PS 15","1","JSSSPTPLUN PS (13-15)","50.1183","-125.0731",,,,"JSSSPT          STAT AREA: P013 PLUNGER PASSAGE     P013","JNST","JSM","50.1167","-125.0667","N"
"L","4.1","20200203","CDFO","2MS23P017WILL IS 09","1","GSPTS WILL IS (17-9)","48.9008","-123.6672",,,,"GSPTS           STAT AREA: P017 WILLY ISLAND        P017","GST","GSVI","48.9","-123.65","N"
"L","4.1","20200203","CDFO","2MS27H027TWSEVEI","1","WSPT  TWSEVEI [H027]",,,,,,"WSPT            STAT AREA: H027 UNKNOWN PFMA 27     H027","WCVI","NWVI","50.4","-128.02","N"
"L","4.1","20200203","CDFO","2F 290FW KOKS RI","1","FWSPT KOKS RI [FW]","48.7508","-123.6414",,,,"FWSPT           STAT AREA: 0FW KOKSILAH RIVER      0FW","GST","GSVI","48.75","-123.6667","N"
"L","4.1","20200203","CDFO","2MS22P016P LO IN 15","1","GSPTN P LO IN (16-15)","50.1847","-123.8031",,,,"GSPTN           STAT AREA: P016 PRINCESS LOUISA INLEP016","GST","GSMS","50.1833","-123.8","N"
"L","4.1","20200203","CDFO","2MS27P024MONK IT 06","1","WSPT  MONK IT (24-6)","49.2321","-126.0021",,,,"WSPT            STAT AREA: P024 MONKS ISLET         P024","WCVI","SWVI","49.2321","-126.0021","N"
"L","4.1","20200203","CDFO","2FS99GSMNR0178","1","R-VANCOUVER R",,,,,,"CDN ESCMENT     VANCOUVER R          GSMN","GST","GSMS","49.923","-123.867","N"
"L","4.1","20200203","CDFO","2MS22P015THUL PS 03","1","GSPTN THUL PS (15-3)","50.0108","-124.8069",,,,"GSPTN           STAT AREA: P015 THULIN PASSAGE      P015","GST","GSMN","50","-124.8","N"
"L","4.1","20200203","CDFO","2MS22P015COPE IS 03","1","GSPTN COPE IS (15-3)","49.9972","-124.8028",,,,"GSPTN           STAT AREA: P015 COPELAND ISLANDS    P015","GST","GSMN","50","-124.8","N"
"L","4.1","20200203","CDFO","2MS23M19AMCCU PT 08","1","GSPTS MCCU PT (19-8)","48.5611","-123.5206",,,,"GSPTS           STAT AREA: M19A MCCURDY POINT       M19A","GST","GSVI","48.5667","-123.5","N"
"L","4.1","20200203","CDFO","2MS23P017ROUN IS 16","1","GSPTS ROUN IS (17-16)","49.1169","-123.795",,,,"GSPTS           STAT AREA: P017 ROUND ISLAND        P017","GST","GSVI","49.1167","-123.8","N"
"L","4.1","20200203","CDFO","2MN26P012DAPH PT 16","1","CSPT  DAPH PT (12-16)","50.745","-127.45",,,,"CSPT            STAT AREA: P012 DAPHNE POINT        P012","JNST","JSVI","50.745","-127.45","N"
"L","4.1","20200203","CDFO","2MS27H025ANDE PT","1","WSPT  ANDE PT [H025]","49.6464","-126.4689",,,,"WSPT            STAT AREA: H025 ANDERSON POINT      H025","WCVI","WCVIG","49.6464","-126.4689","N"
"L","4.1","20200203","CDFO","2MS22P013WHALETO 15","1","GSPTN WHALETO (13-15)","50.1045","-125.0547",,,,"GSPTN           STAT AREA: P013 WHALETOWN           P013","JNST","JSM","50.1045","-125.0547","N"
"L","4.1","20200203","CDFO","2MS02M402       000","1","SWTR         M402-000",,,,,,"SWTR            Composite Area: PFMA 23 (Barkley Sound)/123/24/124","WCVI","SWVI","48.85","-125.48","N"
"L","4.1","20200203","CDFO","2MS22P015DEER PS 05","1","GSPTN DEER PS (15-5)","50.2867","-124.9622",,,,"GSPTN           STAT AREA: P015 DEER PASSAGE        P015","GST","GSMN","50.2833","-124.9667","N"
"L","4.1","20200203","CDFO","2MS22P013READ PT 13","1","GSPTN READ PT (13-13)","50.13","-125.1436",,,,"GSPTN           STAT AREA: P013 READ POINT          P013","JNST","JSM","50.1333","-125.15","N"
"L","4.1","20200203","CDFO","2MS22P013OTTE CV 09","1","GSPTN OTTE CV (13-9)","50.325","-125.4458",,,,"GSPTN           STAT AREA: P013 OTTER COVE          P013","JNST","JNSTG","50.3167","-125.4333","N"
"L","4.1","20200203","CDFO","2MS61P013THUR BY 26","1","JSSSPTTHUR BY (13-26)","50.3689","-125.3231",,,,"JSSSPT          STAT AREA: P013 THURSTON BAY        P013","JNST","JSM","50.3667","-125.3167","N"
"L","4.1","20200203","CDFO","2MS22P015SAVA IS 02","1","GSPTN SAVA IS (15-2)","49.9406","-124.8172",,,,"GSPTN           STAT AREA: P015 SAVARY ISLAND       P015","GST","GSMN","49.9333","-124.8333","N"
"L","4.1","20200203","CDFO","2MS22P015FALS PS 05","1","GSPTN FALS PS (15-5)","50.2678","-124.8006",,,,"GSPTN           STAT AREA: P015 FALSE PASSAGE       P015","GST","GSMN","50.2667","-124.8","N"
"L","4.1","20200203","CDFO","2MS24P020TRAP SH 05","1","JFSPT TRAP SH (20-5)","48.3333","-123.6833",,,,"JFSPT           STAT AREA: P020 TRAP SHACK          P020","WCVI","SWVI","48.3333","-123.6833","N"
"L","4.1","20200203","CDFO","2MS27M23BEFFI IN 06","1","WSPT  EFFI IN (23-6)","49.0392","-125.1513",,,,"WSPT            STAT AREA: M23B EFFINGHAM INLET     M23B","WCVI","SWVI","49.0392","-125.1513","N"
"L","4.1","20200203","CDFO","2MS22P013CENT IT 16","1","GSPTN CENT IT (13-16)","50.125","-125.0911",,,,"GSPTN           STAT AREA: P013 CENTRE ISLET        P013","JNST","JSM","50.1333","-125.0833","N"
"L","4.1","20200203","CDFO","2MS22P016BLIN BY 16","1","GSPTN BLIN BY (16-16)","49.7281","-124.1881",,,,"GSPTN           STAT AREA: P016 BLIND BAY           P016","GST","GSMS","49.7333","-124.1667","N"
"L","4.1","20200203","CDFO","2FS99GSVIR2726","1","R-FIRST LAKE/GSVI",,,,,,"CDN ESCMENT     FIRST LAKE/GSVI      GSVI","GST","GSMS","49.373","-122.956","N"
"L","4.1","20200203","CDFO","2MS04P013       421","1","GSTR         P013-421",,,,,,"GSTR            CHATHAM PT (GREENSEA BAY) (PFMA SUBS 13-9, -27, -28, -29)","JNST","JSM","50.35","-125.5","N"
"L","4.1","20200203","CDFO","2FS99GSMNR1986","1","R-CHAPMAN CR",,,,,,"CDN ESCMENT     CHAPMAN CR           GSMN","GST","GSMS","49.4498","-123.7214","N"
"L","4.1","20200203","CDFO","2MS27P027CP SCTT 01","1","WSPT  CP SCTT (27-1)","50.7741","-128.4472",,,,"WSPT            STAT AREA: P027 CAPE SCOTT          P027","WCVI","NWVI","50.7741","-128.4472","N"
"L","4.1","20200203","CDFO","2MS27M23BHOLF BY 05","1","WSPT  HOLF BY (23-5)","48.9377","-125.0868",,,,"WSPT            STAT AREA: M23B HOLFORD BAY         M23B","WCVI","SWVI","48.9377","-125.0868","N"
"L","4.1","20180206","CDFO","2MS23P029MCCA BK 02","1","GSPTS MCCA BK (29-2)","49.3333","-123.65",,,,"GSPTS           STAT AREA: P029 MCCALL BANK         P029","GST","GSMS","49.3333","-123.65","N"
"L","4.1","20200203","CDFO","2MS27P125BAJO PT 02","1","WSPT  BAJO PT (125-2)","49.6183","-126.8267",,,,"WSPT            STAT AREA: P125 BAJO POINT          P125","WCVI","NWVI","49.6167","-126.8167","N"
"L","4.1","20200203","CDFO","2MS27P024BART IS","1","WSPT  BART IS (P024)","49.2219","-126.0858",,,,"WSPT            STAT AREA: P024 BARTLETT ISLAND     P024","WCVI","SWVI","49.2219","-126.0858","N"
"L","4.1","20200203","CDFO","2FS99JNSTR0095","1","R-CAMPBELL R",,,,,,"CDN ESCMENT     CAMPBELL R           JNST","JNST","JSVI","50.0486","-125.2583","N"
"L","4.1","20200203","CDFO","2MS23P017MUDG IS 16","1","GSPTS MUDG IS (17-16)","49.1311","-123.7911",,,,"GSPTS           STAT AREA: P017 MUDGE ISLAND        P017","GST","GSVI","49.1311","-123.7911","N"
"L","4.1","20200203","CDFO","2MS23P018YEO PT  03","1","GSPTS YEO PT (18-3)","48.7969","-123.3917",,,,"GSPTS           STAT AREA: P018 YEO POINT           P018","GST","GSVI","48.7833","-123.3833","N"
"L","4.1","20200203","CDFO","2MS61P013BEAR PT 30","1","JSSSPTBEAR PT (13-30)","50.3669","-125.6713",,,,"JSSSPT          STAT AREA: P013 BEAR POINT          P013","JNST","JNSTG","50.3669","-125.6713","N"
"L","4.1","20200203","CDFO","2MS20H025       650","1","NWVN         H025-650",,,,,,"NWVN            MAQUINNA POINT","WCVI","NWVI","49.58","-126.6772","N"
"L","4.1","20200203","CDFO","2FS99GSMNR2732","1","R-PORTEAU COVE",,,,,,"CDN ESCMENT     PORTEAU COVE         GSMN","GST","GSMS","49.55","-123.238","N"
"L","4.1","20200203","CDFO","2FS99GSVIR0295","1","R-GOLDSTREAM R",,,,,,"CDN ESCMENT     GOLDSTREAM R         GSVI","GST","GSVI","48.42","-123.548","N"
"L","4.1","20180206","CDFO","2MS23P029GOSS IS 04","1","GSPTS GOSS IS (29-4)","48.8906","-123.3214",,,,"GSPTS           STAT AREA: P029 GOSSIP ISLAND       P029","GST","GSVI","48.8906","-123.3214","N"
"L","4.1","20200203","CDFO","2MS04M107       000","1","GSTR         M107-000",,,,,,"GSTR            PFMA 16, 29 (STAT AREAS 16, 29)","GST","GSTG","49.47","-123.9","N"
"L","4.1","20200203","CDFO","2MS23P028COAL HR 10","1","GSPTS COAL HR (28-10)","49.2936","-123.1217",,,,"GSPTS           STAT AREA: P028 COAL HARBOUR        P028","GST","GSMS","49.2936","-123.1217","N"
"L","4.1","20200203","CDFO","2MS27H027GRNT BY","1","WSPT  GRNT BY [H027]","50.4744","-128.0894",,,,"WSPT            STAT AREA: H027 GRANT BAY           H027","WCVI","NWVI","50.4744","-128.0894","N"
"L","4.1","20200203","CDFO","2MS62P014BOWSER  05","1","GSSPTCBOWSER (14-5)","49.4356","-124.6606",,,,"GSSPTC          STAT AREA: P014 BOWSER              P014","GST","GSVI","49.45","-124.6667","N"
"L","4.1","20200203","CDFO","2MS22P014PALL RK 11","1","GSPTN PALL RK (14-11)","49.6167","-124.8333",,,,"GSPTN           STAT AREA: P014 PALLISER ROCK       P014","GST","GSVI","49.6167","-124.8333","N"
"L","4.1","20200203","CDFO","2MS04H29A       000","1","GSTR         H29A-000",,,,,,"GSTR            PFMA 29 (Georgia Strait: ~ 29-1 to 29-4) (STAT AREA 29A)","GST","GSTG","49.18","-123.54","N"
"L","4.1","20200203","CDFO","2MS22P013ELK BY  09","1","GSPTN ELK BY (13-9)","50.2814","-125.4347",,,,"GSPTN           STAT AREA: P013 ELK BAY             P013","JNST","JNSTG","50.2833","-125.4333","N"
"L","4.1","20200203","CDFO","2MS24P020WILL HD","1","JFSPT WILL HD (P020)","48.3425","-123.5272",,,,"JFSPT           STAT AREA: P020 WILLIAM HEAD        P020","GST","GSVI","48.3425","-123.5272","N"
"L","4.1","20200203","CDFO","2MS04P013       143","1","GSTR         P013-143",,,,,,"GSTR            MITLENATCH I.","GST","GSTG","49.9506","-125.0039","N"
"L","4.1","20200203","CDFO","2MS22P014LITT RV 13","1","GSPTN LITT RV (14-13)","49.7372","-124.9034",,,,"GSPTN           STAT AREA: P014 LITTLE RIVER        P014","GST","GSVI","49.7372","-124.9034","N"
"L","4.1","20200203","CDFO","2MS02H024       108","1","SWTR         H024-108",,,,,,"SWTR            TOFINO","WCVI","SWVI","49.1582","-125.9063","N"
"L","4.1","20200203","CDFO","2MS27H025NOOT LT","1","WSPT  NOOT LT [H025]","49.5922","-126.6153",,,,"WSPT            STAT AREA: H025 NOOTKA LIGHT        H025","WCVI","WCVIG","49.6","-126.6167","N"
"L","4.1","20180206","CDFO","2MS22P013ARRA PS 23","1","GSPTN ARRA PS (13-23)",,,,,,"GSPTN           STAT AREA: P013 DO NOT USE SEE ARRA P013","JNST","JSM","50.4167","-125.1333","N"
"L","4.1","20200203","CDFO","2MS27P024FLOR IS 04","1","WSPT  FLOR IS (24-4)","49.3288","-126.1571",,,,"WSPT            STAT AREA: P024 FLORES ISLAND       P024","WCVI","SWVI","49.3288","-126.1571","N"
"L","4.1","20200203","CDFO","2MS02M114       357","1","SWTR         M114-357",,,,,,"SWTR            PFMAS 23, 123, 24, 124 - MRP SUBS 59, 62","WCVI","SWVI",,,"N"
"L","4.1","20200203","CDFO","2MS27P123AMPH BK 03","1","WSPT  AMPH BK (123-3)","48.8774","-125.5229",,,,"WSPT            STAT AREA: P123 AMPHITRITE BANK     P123","WCVI","SWVI","48.8774","-125.5229","N"
"L","4.1","20200203","CDFO","2MS27M23BSATE PS 07","1","WSPT  SATE PS (23-7)","48.86","-125.1689",,,,"WSPT            STAT AREA: M23B SATELLITE PASSAGE   M23B","WCVI","SWVI","48.86","-125.1689","N"
"L","4.1","20200203","CDFO","2MN26P012PULT PT 18","1","CSPT  PULT PT (12-18)","50.6303","-127.1553",,,,"CSPT            STAT AREA: P012 PULTENEY POINT      P012","JNST","JNSTG","50.6167","-127.15","N"
"L","4.1","20200203","CDFO","2MN26P012CHRS PT 14","1","CSPT  CHRS PT (12-14)","50.8339","-128.2114",,,,"CSPT            STAT AREA: P012 CHRISTENSEN POINT   P012","JNST","JSVI","50.8339","-128.2114","N"
"L","4.1","20200203","CDFO","2F 290FW TSIT RI","1","FWSPT TSIT RI [FW]","50.4806","-126.5864",,,,"FWSPT           STAT AREA: 0FW TSITIKA RIVER       0FW","JNST","JSVI","50.4667","-126.5833","N"
"L","4.1","20200203","CDFO","2MS62P016EGMONT  09","1","GSSPTCEGMONT (16-9)","49.75","-123.9322",,,,"GSSPTC          STAT AREA: P016 EGMONT              P016","GST","GSMS","49.75","-123.9167","N"
"L","4.1","20200203","CDFO","2MSTSH024       602","1","TAAQS        H024-602",,,,,,"TAAQS           RAFAEL POINT (AHOUSAT)","WCVI","SWVI","49.2833","-126.2333","N"
"L","4.1","20200203","CDFO","2MS22P015ATTW BY 05","1","GSPTN ATTW BY (15-5)","50.3125","-124.6683",,,,"GSPTN           STAT AREA: P015 ATTWOOD BAY         P015","GST","GSMN","50.3167","-124.6667","N"
"L","4.1","20200203","CDFO","2MS23P028AMBLESI 06","1","GSPTS AMBLESI (28-6)","49.3167","-123.15",,,,"GSPTS           STAT AREA: P028 AMBLESIDE           P028","GST","GSMS","49.3167","-123.15","N"
"L","4.1","20200203","CDFO","2MS27P123FOLG IS","1","WSPT  FOLG IS (P123)","48.8283","-125.2481",,,,"WSPT            STAT AREA: P123 FOLGER ISLAND       P123","WCVI","SWVI","48.8283","-125.2481","N"
"L","4.1","20200203","CDFO","2MN26P012WHIT PS 05","1","CSPT  WHIT PS (12-5)","50.5922","-126.6786",,,,"CSPT            STAT AREA: P012 WHITEBEACH PASSAGE  P012","JNST","JNSTG","50.6","-126.6667","N"
"L","4.1","20180206","CDFO","2F 29FWLFBRUN RV 13","1","FWSPT BRUN RV [29-13]","49.2194","-122.8917",,,,"FWSPT           STAT AREA: FWLF BRUNETTE RIVER      FWLF","GST","GSMS","49.2167","-122.8833","N"
"L","4.1","20200203","CDFO","2MS02M111       342","1","SWTR         M111-342",,,,,,"SWTR            PFMAS 21, 121, 23, 123 - MRP SUBS 48, 53, 113 (THE FENCE)","WCVI","SWVI","48.39","-125.52","N"
"L","4.1","20200203","CDFO","2MS22P013QUAD BB 01","1","GSPTN QUAD BB (13-1)","49.9929","-125.1904",,,,"GSPTN           STAT AREA: P013 QUADRA BELL BUOY    P013","GST","GSTG","49.9929","-125.1904","N"
"L","4.1","20200203","CDFO","2MS22P015RAVE BY 01","1","GSPTN RAVE BY (15-1)","49.4369","-124.4967",,,,"GSPTN           STAT AREA: P015 RAVEN BAY           P015","GST","GSMS","49.7333","-124.5","N"
"L","4.1","20200203","CDFO","2MS24M19BPEDD BY 05","1","JFSPT PEDD BY (19-5)","48.3364","-123.5481",,,,"JFSPT           STAT AREA: M19B PEDDER BAY          M19B","GST","GSVI","48.3364","-123.5481","N"
"L","4.1","20200203","CDFO","2MS23P028DORM BY 02","1","GSPTS DORM BY (28-2)","49.375","-123.3261",,,,"GSPTS           STAT AREA: P028 DORMAN BAY          P028","GST","GSMS","49.3667","-123.3167","N"
"L","4.1","20180206","CDFO","2MN26H011SLIN CH 02","1","CSPT  SLIN CH [11-2]","51.0908","-127.5717",,,,"CSPT            STAT AREA: H011 SLINGSBY CHANNEL    H011","JNST","JNSTG","51.0833","-127.5667","N"
"L","4.1","20200203","CDFO","2MS20H025       066","1","NWVN         H025-066",,,,,,"NWVN            ESTEVAN PT. TO BAJO PT. (INCLUDES NOOTKA SD.)","WCVI","WCVIG","49.55","-126.6667","N"
"L","4.1","20200203","CDFO","2MS22P013COPP BF 03","1","GSPTN COPP BF (13-3)","50.0991","-125.2728",,,,"GSPTN           STAT AREA: P013 COPPER CLIFFS       P013","JNST","JNSTG","50.0991","-125.2728","N"
"L","4.1","20200203","CDFO","2MS22P016GILL BY 21","1","GSPTN GILL BY (16-21)","49.6661","-124.4789",,,,"GSPTN           STAT AREA: P016 GILLIES BAY         P016","GST","GSMS","49.6667","-124.4833","N"
"L","4.1","20200203","CDFO","2MS22P014CHRO IS 05","1","GSPTN CHRO IS (14-5)","49.4722","-124.6847",,,,"GSPTN           STAT AREA: P014 CHROME ISLAND       P014","GST","GSVI","49.4722","-124.6847","N"
"L","4.1","20200203","CDFO","2MS22P016TEMP RK 17","1","GSPTN TEMP RK (16-17)","49.6278","-124.0919",,,,"GSPTN           STAT AREA: P016 TEMPLE ROCK         P016","GST","GSMS","49.6333","-124.1","N"
"L","4.1","20200203","CDFO","2MS27H027PEND PT","1","WSPT  PEND PT [H027]","50.4906","-127.5872",,,,"WSPT            STAT AREA: H027 PENDER POINT        H027","WCVI","NWVI","50.4906","-127.5872","N"
"L","4.1","20200203","CDFO","2MS02H023       235","1","SWTR         H023-235",,,,,,"SWTR            MRP SUBS 58, 59, 113","WCVI","SWVI",,,"N"
"L","4.1","20200203","CDFO","2MS23P017HARMAC  16","1","GSPTS HARMAC (17-16)","49.15","-123.8833",,,,"GSPTS           STAT AREA: P017 HARMAC              P017","GST","GSVI","49.1333","-123.8333","N"
"L","4.1","20200203","CDFO","2MS27P027RUPE IN 10","1","WSPT  RUPE IN (27-10)","50.5811","-127.4908",,,,"WSPT            STAT AREA: P027 RUPERT INLET        P027","WCVI","NWVI","50.5833","-127.5","N"
"L","4.1","20200203","CDFO","2MS62P014FREN CR 01","1","GSSPTCFREN CR (14-1)","49.35","-124.35",,,,"GSSPTC          STAT AREA: P014 FRENCH CREEK        P014","GST","GSVI","49.35","-124.35","N"
"L","4.1","20200203","CDFO","2MS22P016DVIS BY 21","1","GSPTN DVIS BY (16-21)","49.7197","-124.6086",,,,"GSPTN           STAT AREA: P016 DAVIS BAY           P016","GST","GSMS","49.7167","-124.6","N"
"L","4.1","20200203","CDFO","2MS27P121NITINAT","1","WSPT  NITINAT (P121)","48.6654","-124.854",,,,"WSPT            STAT AREA: P121 NITINAT             P121","WCVI","SWVI","48.6654","-124.854","N"
"L","4.1","20200203","CDFO","2MS23P028CAPI BB 09","1","GSPTS CAPI BB (28-9)","49.3194","-123.1456",,,,"GSPTS           STAT AREA: P028 CAPILANO BELL BUOY  P028","GST","GSMS","49.3167","-123.1333","N"
"L","4.1","20200203","CDFO","2MS22P015STUR BY 01","1","GSPTN STUR BY (15-1)","49.7619","-124.5667",,,,"GSPTN           STAT AREA: P015 STURT BAY           P015","GST","GSMS","49.7667","-124.5333","N"
"L","4.1","20200203","CDFO","2MS61P013VINE PT 14","1","JSSSPTVINE PT (13-14)","50.1272","-125.1306",,,,"JSSSPT          STAT AREA: P013 VINER POINT         P013","JNST","JSM","50.1167","-125.1333","N"
"L","4.1","20200203","CDFO","2MS04M032       086","1","GSTR         M032-086",,,,,,"GSTR            GEORGIA STRAIT","GST","GSTG","49.42","-124","N"
"L","4.1","20200203","CDFO","2MS21H023       054","1","SWVN         H023-054",,,,,,"SWVN            INSIDE SURFLINE - ALBERNI INLET PFMA SUBS 23-1, -2","WCVI","SWVI","49.104","-124.83","N"
"L","4.1","20200203","CDFO","2MS27P123BAMFIEL","1","WSPT  BAMFIEL (P123)","48.8411","-125.1408",,,,"WSPT            STAT AREA: P123 BAMFIELD            P123","WCVI","SWVI","48.8411","-125.1408","N"
"L","4.1","20200203","CDFO","2MS02H024       245","1","SWTR         H024-245",,,,,,"SWTR            MRP SUBS 63, 65","WCVI","SWVI","49.07","-126.52","N"
"L","4.1","20200203","CDFO","2MS22P013GRAN PT 08","1","GSPTN GRAN PT (13-8)","50.2769","-125.3836",,,,"GSPTN           STAT AREA: P013 GRANITE POINT       P013","JNST","JNSTG","50.2833","-125.3833","N"
"L","4.1","20200203","CDFO","2MS24P020SOOKE   07","1","JFSPT SOOKE (20-7)","48.3828","-123.7319",,,,"JFSPT           STAT AREA: P020 SOOKE               P020","WCVI","SWVI","48.35","-123.75","N"
"L","4.1","20200203","CDFO","2MN26P012TRIB CH 35","1","CSPT  TRIB CH (12-35)","50.8053","-126.2161",,,,"CSPT            STAT AREA: P012 TRIBUNE CHANNEL     P012","JNST","JSM","50.8333","-126.35","N"
"L","4.1","20200203","CDFO","2MS01M052       000","1","NWTR         M052-000",,,,,,"NWTR            PFMA 25 to 27, 125 to 127 (STAT AREAS 25 to 27)","WCVI","NWVI",,,"N"
"L","4.1","20200203","CDFO","2MS27M23BBEAR BY 04","1","WSPT  BEAR BY (23-4)","48.8833","-125.05",,,,"WSPT            STAT AREA: M23B BEAR BAY            M23B","WCVI","SWVI","48.8833","-125.05","N"
"L","4.1","20200203","CDFO","2MS27H025LOW RK","1","WSPT  LOW RK [H025]","49.8","-127.0667",,,,"WSPT            STAT AREA: H025 LOW ROCK            H025","WCVI","NWVI","49.8","-127.0667","N"
"L","4.1","20200203","CDFO","2MS14P020       104","1","JFTR         P020-104",,,,,,"JFTR            BLUE LINE (BONILLA PT.)","WCVI","SWVI","48.59","-124.72","N"
"L","4.1","20200203","CDFO","2MS02H023       805","1","SWTR         H023-805",,,,,,"SWTR            PFMA 123 UNKNOWN TROLL ZONES (OUTSIDE SURFLINE)","WCVI","SWVI","48.15","-126.4","N"
"L","4.1","20200203","CDFO","2MS27P124WYA PT","1","WSPT  WYA PT (P124)","48.9746","-125.6234",,,,"WSPT            STAT AREA: P124 WYA POINT           P124","WCVI","SWVI","48.9746","-125.6234","N"
"L","4.1","20180206","CDFO","2MN26H011MEXI PT 01","1","CSPT  MEXI PT [11-1]","50.9117","-127.9961",,,,"CSPT            STAT AREA: H011 MEXICANA POINT      H011","JNST","JNSTG","50.9117","-127.9961","N"
"L","4.1","20200203","CDFO","2MS23P29MCAMP BG 01","1","GSPTS CAMP BG (29-1)","49.4192","-123.6417",,,,"GSPTS           STAT AREA: P29M CAMP BYNG           P29M","GST","GSMS","49.4192","-123.6417","N"
"L","4.1","20200203","CDFO","2MS23P028MCNA CR 03","1","GSPTS MCNA CR (28-3)","49.5617","-123.3803",,,,"GSPTS           STAT AREA: P028 MCNAB CREEK         P028","GST","GSMS","49.5617","-123.3803","N"
"L","4.1","20200203","CDFO","2F 290FW ENGL RI","1","FWSPT ENGL RI [FW]","49.3253","-124.2914",,,,"FWSPT           STAT AREA: 0FW ENGLISHMAN RIVER    0FW","GST","GSVI","49.3333","-124.2833","N"
"L","4.1","20200203","CDFO","2MN26H011SLIN CH","1","CSPT  SLIN CH [H011]","51.0908","-127.5717",,,,"CSPT            STAT AREA: H011 SLINGSBY CHANNEL    H011","JNST","JNSTG","51.0908","-127.5717","N"
"L","4.1","20200203","CDFO","2MS13P020       000","1","JFN          P020-000",,,,,,"JFN             PFMA 20 - Sooke, Bonilla Point Lighthouse","WCVI","SWVI","48.42","-124.22","N"
"L","4.1","20200203","CDFO","2MS62P014PT HOLM 13","1","GSSPTCPT HOLM (14-13)","49.675","-124.8454",,,,"GSSPTC          STAT AREA: P014 POINT HOLMES        P014","GST","GSVI","49.675","-124.8454","N"
"L","4.1","20200203","CDFO","2F 29FWLFDERB RE","1","FWSPT DERB RE [FWLF]","49.2167","-122.75",,,,"FWSPT           STAT AREA: FWLF FRASER:DERBY REACH  FWLF","GST","GSMS","49.2167","-122.75","N"
"L","4.1","20200203","CDFO","2MS22P013JACK BY 37","1","GSPTN JACK BY (13-37)","50.5269","-125.8247",,,,"GSPTN           STAT AREA: P013 JACKSON BAY         P013","JNST","JSM","50.5333","-125.8333","N"
"L","4.1","20200203","CDFO","2MS22P014QUAL BE 05","1","GSPTN QUAL BE (14-5)","49.3556","-124.4514",,,,"GSPTN           STAT AREA: P014 QUALICUM BEACH      P014","GST","GSVI","49.3556","-124.4514","N"
"L","4.1","20200203","CDFO","2MS24M19BVICT BW 03","1","JFSPT VICT BW (19-3)","48.4211","-123.3928",,,,"JFSPT           STAT AREA: M19B VICTORIA BREAKWATER M19B","GST","GSVI","48.4167","-123.4667","N"
"L","4.1","20200203","CDFO","2MS27P025SN R IS 07","1","WSPT  SN R IS (25-7)","49.5922","-126.6153",,,,"WSPT            STAT AREA: P025 SAN RAFAEL ISLAND   P025","WCVI","WCVIG","49.5833","-126.6167","N"
"L","4.1","20200203","CDFO","2MS62P014COMOX   14","1","GSSPTCCOMOX (14-14)","49.6728","-124.9278",,,,"GSSPTC          STAT AREA: P014 COMOX               P014","GST","GSVI","49.6667","-124.9","N"
"L","4.1","20200203","CDFO","2MS27H025ESPE IO","1","WSPT  ESPE IO [H025]",,,,,,"WSPT            STAT AREA: H025 ESPERANZA INLET     H025","WCVI","NWVI",,,"N"
"L","4.1","20200203","CDFO","2MS61P013BROW BY 06","1","JSSSPTBROW BY (13-6)","50.1616","-125.371",,,,"JSSSPT          STAT AREA: P013 BROWN BAY           P013","JNST","JNSTG","50.1616","-125.371","N"
"L","4.1","20200203","CDFO","2MS22P014MAPL PT 08","1","GSPTN MAPL PT (14-8)","49.4656","-124.7361",,,,"GSPTN           STAT AREA: P014 MAPLEGUARD POINT    P014","GST","GSVI","49.4667","-124.7333","N"
"L","4.1","20200203","CDFO","2MS27M23BPILL PT 06","1","WSPT  PILL PT (23-6)","48.9617","-125.0949",,,,"WSPT            STAT AREA: M23B PILL POINT          M23B","WCVI","SWVI","48.9617","-125.0949","N"
"L","4.1","20200203","CDFO","2MS23P028PORT BY 04","1","GSPTS PORT BY (28-4)","49.5503","-123.24",,,,"GSPTS           STAT AREA: P028 PORTEAU COVE        P028","GST","GSMS","49.55","-123.2333","N"
"L","4.1","20200203","CDFO","2MS02H024       749","1","SWTR         H024-749",,,,,,"SWTR            TROLL ZONE 17 (part of PFMA 124)","WCVI","SWVI","49.01","-125.94","N"
"L","4.1","20200203","CDFO","2MS27H027","1","WSPT         H027",,,,,,"WSPT            PFMA 27, 127 (STAT AREA 27)","WCVI","NWVI","50.36","-128.2","N"
"L","4.1","20200203","CDFO","2MS22P016VAUC BE 01","1","GSPTN VAUC BE (16-1)","49.5167","-124",,,,"GSPTN           STAT AREA: P016 VAUCROFT BEACH      P016","GST","GSMS","49.5167","-124","N"
"L","4.1","20200203","CDFO","2FS99GSMNH0153","1","H-TENDERFOOT CR",,,,,,"CDN ESCMENT     TENDERFOOT CR        GSMN","GST","GSMS","49.8299","-123.1513","N"
"L","4.1","20200203","CDFO","2MS22P014FOURTEE","1","GSPTN FOURTEE (P014)",,,,,,"GSPTN           STAT AREA: P014 UNKNOWN PFMA 14     P014","GST","GSVI","49.61","-124.71","N"
"L","4.1","20200203","CDFO","2MS27M23BHAGG CV 03","1","WSPT  HAGG CV (23-3)","48.9623","-125.0221",,,,"WSPT            STAT AREA: M23B HAGGARD COVE        M23B","WCVI","SWVI","48.9623","-125.0221","N"
"L","4.1","20200203","CDFO","2MS23P028WEST VA 06","1","GSPTS WEST VA (28-6)","49.3254","-123.166",,,,"GSPTS           STAT AREA: P028 WEST VANCOUVER      P028","GST","GSMS","49.3167","-123.2","N"
"L","4.1","20200203","CDFO","2MS27P123SWES BK 08","1","WSPT  SWES BK (123-8)","48.7","-125.8167",,,,"WSPT            STAT AREA: P123 SOUTHWEST BANK      P123","WCVI","SWVI","48.7","-125.8167","N"
"L","4.1","20200203","CDFO","2MS24M19BBROT LE 03","1","JFSPT BROT LE (19-3)","48.4","-123.3833",,,,"JFSPT           STAT AREA: M19B BROTCHIE LEDGE      M19B","GST","GSVI","48.4","-123.3833","N"
"L","4.1","20200203","CDFO","2MS04P016       117","1","GSTR         P016-117",,,,,,"GSTR            SABINE CHANNEL TROLL ZONE 75 PFMA 16-19, -20, -21, -22","GST","GSMS","49.6","-124.46","N"
"L","4.1","20200203","CDFO","2MS02M114       000","1","SWTR         M114-000",,,,,,"SWTR            PFMA 23, 123, 24, 124 (STAT AREAS 23, 24)","WCVI","SWVI","48.86","-125.8","N"
"L","4.1","20200203","CDFO","2MS22P014BOAT CV 03","1","GSPTN BOAT CV (14-3)","49.4614","-124.2381",,,,"GSPTN           STAT AREA: P014 BOAT COVE           P014","GST","GSVI","49.4614","-124.2381","N"
"L","4.1","20200203","CDFO","2MS11P012       091","1","JSN          P012-091",,,,,,"JSN             JOHNSTONE STRAIT (PFMA SUBS 12-1, -2, -3, -21 to -25)","JNST","JSM","50.52","-126.32","N"
"L","4.1","20200203","CDFO","2FS99GSMNH0103","1","H-CAPILANO R",,,,,,"CDN ESCMENT     CAPILANO R           GSMN","GST","GSMS","49.3598","-123.1113","N"
"L","4.1","20200203","CDFO","2MS23P018PADD MI 07","1","GSPTS PADD MI (18-7)","48.8086","-123.5889",,,,"GSPTS           STAT AREA: P018 PADDY MILE STONE    P018","GST","GSVI","48.8167","-123.5833","N"
"L","4.1","20180206","CDFO","2MS23P029WHIT RK 08","1","GSPTS WHIT RK (29-8)","49.0236","-122.7983",,,,"GSPTS           STAT AREA: P029 WHITE ROCK          P029","GST","GSMS","49.0333","-122.8","N"
"L","4.1","20200203","CDFO","2MS22P014KING CO 13","1","GSPTN KING CO (14-13)","49.7333","-124.9",,,,"GSPTN           STAT AREA: P014 KING COHO           P014","GST","GSVI","49.7333","-124.9","N"
"L","4.1","20200203","CDFO","2MS24M19BL GR IS 06","1","JFSPT L GR IS (19-6)","48.6681","-123.3697",,,,"JFSPT           STAT AREA: M19B LITTLE GROUP ISLANDSM19B","GST","GSVI","48.6667","-123.3667","N"
"L","4.1","20200203","CDFO","2MS61P013SHEL PT 02","1","JSSSPTSHEL PT (13-2)","49.9411","-125.1738",,,,"JSSSPT          STAT AREA: P013 SHELTER POINT       P013","GST","GSVI","49.9411","-125.1738","N"
"L","4.1","20200203","CDFO","2MS22P013WEST WF 03","1","GSPTN WEST WF (13-3)","50.05","-125.25",,,,"GSPTN           STAT AREA: P013 WESTERN MINES WHARF P013","JNST","JNSTG","50.05","-125.25","N"
"L","4.1","20200203","CDFO","2MS11P012       130","1","JSN          P012-130",,,,,,"JSN             GOLETAS CHANNEL PFMA 12-15, -16","JNST","JSVI","50.82","-127.62","N"
"L","4.1","20200203","CDFO","2MS22P015GRIL PT 01","1","GSPTN GRIL PT (15-1)","49.8033","-124.6044",,,,"GSPTN           STAT AREA: P015 GRILSE POINT        P015","GST","GSMS","49.8","-124.6","N"
"L","4.1","20200203","CDFO","2MS28M23AALBE IN 01","1","ACSPT ALBE IN (23-1)","48.9806","-124.9072",,,,"ACSPT           STAT AREA: M23A ALBERNI INLET       M23A","WCVI","SWVI","48.9806","-124.9072","N"
"L","4.1","20200203","CDFO","2MS27H025FERR PO","1","WSPT  FERR PO [H025]",,,,,,"WSPT            STAT AREA: H025 FERRER POINT        H025","WCVI","NWVI",,,"N"
"L","4.1","20200203","CDFO","2MS22P013INDI RE 05","1","GSPTN INDI RE (13-5)","50.0192","-125.1934",,,,"GSPTN           STAT AREA: P013 INDIAN RESIDENCE    P013","JNST","JSVI","50.0192","-125.1934","N"
"L","4.1","20200203","CDFO","2MS27H025NOOT IO","1","WSPT  NOOT IO [H025]",,,,,,"WSPT            STAT AREA: H025 NOOTKA ISLAND       H025","WCVI","NWVI",,,"N"
"L","4.1","20200203","CDFO","2MS23P018JAME PT 04","1","GSPTS JAME PT (18-4)","48.8081","-123.3275",,,,"GSPTS           STAT AREA: P018 JAMES POINT         P018","GST","GSVI","48.8","-123.3333","N"
"L","4.1","20200203","CDFO","2MS21H023       056","1","SWVN         H023-056",,,,,,"SWVN            INSIDE SURFLINE - CAPE BEALE TO BOUNDARY OF PFMAS 23 AND 24 (PFMA SUBS 23-3 to -11)","WCVI","SWVI","48.87","-125.42","N"
"L","4.1","20200203","CDFO","2MS23P29MPT GREY 03","1","GSPTS PT GREY (29-3)","49.2708","-123.2622",,,,"GSPTS           STAT AREA: P29M POINT GREY          P29M","GST","GSMS","49.2708","-123.2622","N"
"L","4.1","20200203","CDFO","2MS62P016SANG IS","1","GSSPTCSANG IS (P016)","49.4261","-124.1992",,,,"GSSPTC          STAT AREA: P016 SANGSTER ISLAND     P016","GST","GSVI","49.4261","-124.1992","N"
"L","4.1","20200203","CDFO","2F 290FW B QU RI","1","FWSPT B QU RI [FW]","49.3981","-124.6103",,,,"FWSPT           STAT AREA: 0FW BIG QUALICUM RIVER  0FW","GST","GSVI","49.4","-124.5833","N"
"L","4.1","20200203","CDFO","2MS22P013FREN PO 03","1","GSPTN FREN PO (13-3)","50.0333","-125.2291",,,,"GSPTN           STAT AREA: P013 FRENCHMANS POOL     P013","JNST","JNSTG","50.05","-125.25","N"
"L","4.1","20200203","CDFO","2MS22P014BUCK BY 08","1","GSPTN BUCK BY (14-8)","49.5239","-124.8447",,,,"GSPTN           STAT AREA: P014 BUCKLEY BAY         P014","GST","GSVI","49.5333","-124.85","N"
"L","4.1","20200203","CDFO","2MS27M23BHARO IT 06","1","WSPT  HARO IT (23-6)","48.9736","-125.186",,,,"WSPT            STAT AREA: M23B HAROLD ISLET        M23B","WCVI","SWVI","48.9736","-125.186","N"
"L","4.1","20200203","CDFO","2MS11P013       647","1","JSN          P013-647",,,,,,"JSN             HELMCKEN POINT","JNST","JNSTG",,,"N"
"L","4.1","20200203","CDFO","2MS27P024GRIC BY 09","1","WSPT  GRIC BY (24-9)","49.0978","-125.7542",,,,"WSPT            STAT AREA: P024 GRICE BAY           P024","WCVI","SWVI","49.0978","-125.7542","N"
"L","4.1","20200203","CDFO","2MS24P020KELP BD 05","1","JFSPT KELP BD (20-5)","48.3333","-123.55",,,,"JFSPT           STAT AREA: P020 KELP BED            P020","WCVI","SWVI","48.3333","-123.55","N"
"L","4.1","20200203","CDFO","2MS01H026       528","1","NWTR         H026-528",,,,,,"NWTR            SOLANDER ISLAND","WCVI","NWVI","50.115","-127.936","N"
"L","4.1","20200203","CDFO","2MS23P29MTWNINE","1","GSPTS TWNINE (P29M)",,,,,,"GSPTS           STAT AREA: P29M UNKNOWN PFMA 29     P29M","GST","GSTG",,,"N"
"L","4.1","20200203","CDFO","2MS02H021       000","1","SWTR         H021-000",,,,,,"SWTR            PFMA 21, 121 (STAT AREA 21)","WCVI","SWVI","48.62","-124.94","N"
"L","4.1","20200203","CDFO","2MS23P017SILV BY 10","1","GSPTS SILV BY (17-10)","49.1511","-123.6992",,,,"GSPTS           STAT AREA: P017 SILVA BAY           P017","GST","GSVI","49.15","-123.6833","N"
"L","4.1","20200203","CDFO","2MS23P028FISH CV 02","1","GSPTS FISH CV (28-2)","49.3569","-123.2703",,,,"GSPTS           STAT AREA: P028 FISHERMANS COVE     P028","GST","GSMS","49.35","-123.2833","N"
"L","4.1","20200203","CDFO","2MS22P014LA BELL 05","1","GSPTN LA BELL (14-5)","49.4167","-124.6",,,,"GSPTN           STAT AREA: P014 LA BELLA VISTA      P014","GST","GSVI","49.4167","-124.6","N"
"L","4.1","20200203","CDFO","2FS99GSMNR1072","1","R-KELLY CR",,,,,,"CDN ESCMENT     KELLY CR             GSMN","GST","GSMS","49.772","-124.382","N"
"L","4.1","20200203","CDFO","2MS27H23BMARA RO","1","WSPT  MARA RO [H23B]",,,,,,"WSPT            STAT AREA: H23B MARA ROCK           H23B","WCVI","SWVI",,,"N"
"L","4.1","20200203","CDFO","2MS13P020       513","1","JFN          P020-513",,,,,,"JFN             SOMBRIO POINT","WCVI","SWVI","48.4833","-124.2833","N"
"L","4.1","20200203","CDFO","2MS22P015SQUI CV 05","1","GSPTN SQUI CV (15-5)","50.1272","-124.9161",,,,"GSPTN           STAT AREA: P015 SQUIRREL COVE       P015","GST","GSMN","50.1167","-124.9167","N"
"L","4.1","20180206","CDFO","2MS23P029OCEA PA 08","1","GSPTS OCEA PA (29-8)","49.0333","-122.8667",,,,"GSPTS           STAT AREA: P029 OCEAN PARK          P029","GST","GSMS","49.0333","-122.8667","N"
"L","4.1","20200203","CDFO","2MS23P028DUGL BY 02","1","GSPTS DUGL BY (28-2)","49.5197","-123.3561",,,,"GSPTS           STAT AREA: P028 DOUGLAS BAY         P028","GST","GSMS","49.5167","-123.35","N"
"L","4.1","20200203","CDFO","2MS21H021       517","1","SWVN         H021-517",,,,,,"SWVN            CLO-OOSE","WCVI","SWVI","48.65","-124.816633","N"
"L","4.1","20200203","CDFO","2FS99GSVIR0213","1","R-ENGLISHMAN R",,,,,,"CDN ESCMENT     ENGLISHMAN R         GSVI","GST","GSVI","49.326","-124.292","N"
"L","4.1","20200203","CDFO","2MS27M23BCANO IS 08","1","WSPT  CANO IS (23-8)","48.9525","-125.2568",,,,"WSPT            STAT AREA: M23B CANOE ISLAND        M23B","WCVI","SWVI","48.9525","-125.2568","N"
"L","4.1","20200203","CDFO","2MS22P014PACI PL 13","1","GSPTN PACI PL (14-13)","49.8725","-125.1158",,,,"GSPTN           STAT AREA: P014 PACIFIC PLAYGROUNDS P014","GST","GSVI","49.8667","-125.1167","N"
"L","4.1","20200203","CDFO","2FS99GSMNR0103","1","R-CAPILANO R",,,,,,"CDN ESCMENT     CAPILANO R           GSMN","GST","GSMS","49.3598","-123.1113","N"
"L","4.1","20200203","CDFO","2MS22P014BOWSER  05","1","GSPTN BOWSER (14-5)","49.4356","-124.6606",,,,"GSPTN           STAT AREA: P014 BOWSER              P014","GST","GSVI","49.45","-124.6667","N"
"L","4.1","20200203","CDFO","2MS62P014COMO BB 09","1","GSSPTCCOMO BB (14-9)","49.6588","-124.8618",,,,"GSSPTC          STAT AREA: P014 COMOX BELL BUOY     P014","GST","GSVI","49.6588","-124.8618","N"
"L","4.1","20180206","CDFO","2MS23P029BONN CR 01","1","GSPTS BONN CR (29-1)","49.39","-123.5561",,,,"GSPTS           STAT AREA: P029 BONNIEBROOK LODGE   P029","GST","GSMS","49.39","-123.5561","N"
"L","4.1","20200203","CDFO","2MS27H026FAVO EN","1","WSPT  FAVO EN [H026]","49.987","-127.3891",,,,"WSPT            STAT AREA: H026 FAVOURITE ENTRANCE  H026","WCVI","NWVI","49.987","-127.3891","N"
"L","4.1","20200203","CDFO","2MS23P017BATH IS 10","1","GSPTS BATH IS (17-10)","49.1469","-123.6744",,,,"GSPTS           STAT AREA: P017 BATH ISLAND         P017","GST","GSVI","49.15","-123.6667","N"
"L","4.1","20200203","CDFO","2MS62P015GRAN RF 02","1","GSSPTCGRAN RF (15-2)","49.8833","-124.8",,,,"GSSPTC          STAT AREA: P015 GRANT REEFS         P015","GST","GSMN","49.8833","-124.7833","N"
"L","4.1","20200203","CDFO","2MS16M149       000","1","NW&SW&WOTR   M149-000",,,,,,"NW&SW&WOTR      PFMA 21, 121, 23 - 27, 123 - 127, WA/OR","WCVI","WCVIG",,,"N"
"L","4.1","20200203","CDFO","2MN26H011ELEVENO","1","CSPT  ELEVENO [H011]",,,,,,"CSPT            STAT AREA: H011 UNKNOWN PFMA 111    H011","JNST","JNSTG","51.05","-128.05","N"
"L","4.1","20200203","CDFO","2MS22P013ROCK BY 28","1","GSPTN ROCK BY (13-28)","50.3314","-125.4772",,,,"GSPTN           STAT AREA: P013 ROCK BAY            P013","JNST","JNSTG","50.3333","-125.4667","N"
"L","4.1","20200203","CDFO","2MS27P124TURT HD","1","WSPT  TURT HD (P124)","48.8317","-125.5031",,,,"WSPT            STAT AREA: P124 TURTLE HEAD         P124","WCVI","SWVI","48.8317","-125.5031","N"
"L","4.1","20200203","CDFO","2MS27M23BMARE BF 07","1","WSPT  MARE BF (23-7)","48.8667","-125.2893",,,,"WSPT            STAT AREA: M23B MEARES BLUFF        M23B","WCVI","SWVI","48.8667","-125.2893","N"
"L","4.1","20180206","CDFO","2MS23P029ROBE CR 01","1","GSPTS ROBE CR (29-1)","49.4192","-123.6417",,,,"GSPTS           STAT AREA: P029 ROBERTS CREEK       P029","GST","GSMS","49.4167","-123.6333","N"
"L","4.1","20200203","CDFO","2MS21H023       073","1","SWVN         H023-073",,,,,,"SWVN            BAMFIELD","WCVI","SWVI","48.835","-125.144","N"
"L","4.1","20200203","CDFO","2FS99GSVIR0111","1","R-ROSEWALL CR",,,,,,"CDN ESCMENT     ROSEWALL CR          GSVI","GST","GSVI","49.467","-124.783","N"
"L","4.1","20200203","CDFO","2MS23P028BATC CV 02","1","GSPTS BATC CV (28-2)","49.3692","-123.2869",,,,"GSPTS           STAT AREA: P028 BATCHELOR COVE      P028","GST","GSMS","49.3667","-123.2833","N"
"L","4.1","20200203","CDFO","2MS61P013CHAT PT 28","1","JSSSPTCHAT PT (13-28)","50.3306","-125.4386",,,,"JSSSPT          STAT AREA: P013 CHATHAM POINT       P013","JNST","JNSTG","50.3306","-125.4386","N"
"L","4.1","20200203","CDFO","2MN26P012HANS IS 05","1","CSPT  HANS IS (12-5)","50.5703","-126.7394",,,,"CSPT            STAT AREA: P012 HANSON ISLAND       P012","JNST","JNSTG","50.5833","-126.75","N"
"L","4.1","20200203","CDFO","2MN09H003       546","1","NN           H003-546",,,,,,"NN              PORTLAND POINT","WCVI","SWVI","49.06665","-125.815","N"
"L","4.1","20200203","CDFO","2MS10P015       095","1","GSN          P015-095",,,,,,"GSN             LUND","GST","GSMN","49.9806","-124.7651","N"
"L","4.1","20200203","CDFO","2MS22P014AJAX RF 12","1","GSPTN AJAX RF (14-12)","49.6518","-124.6991",,,,"GSPTN           STAT AREA: P014 AJAX BANK (REEF)    P014","GST","GSVI","49.6518","-124.6991","N"
"L","4.1","20200203","CDFO","2MS04P015       000","1","GSTR         P015-000",,,,,,"GSTR            PFMA 15 - Brettell Point, Powell River","GST","GSMN","50.08","-124.67","N"
"L","4.1","20200203","CDFO","2MS23P028PT GREY","1","GSPTS PT GREY (P028)","49.2708","-123.2622",,,,"GSPTS           STAT AREA: P028 POINT GREY          P028","GST","GSMS","49.2708","-123.2622","N"
"L","4.1","20200203","CDFO","2MS04P016       000","1","GSTR         P016-000",,,,,,"GSTR            PFMA 16 - Texada Island, Lasqueti Island, Jervis Inlet","GST","GSMS","49.62","-124.24","N"
"L","4.1","20200203","CDFO","2MS27P024MACK BE 08","1","WSPT  MACK BE (24-8)","49.1303","-125.908",,,,"WSPT            STAT AREA: P024 MACKENZIE BEACH     P024","WCVI","SWVI","49.1303","-125.908","N"
"L","4.1","20200203","CDFO","2MS27P125NOOT LT","1","WSPT  NOOT LT (P125)","49.5922","-126.6153",,,,"WSPT            STAT AREA: P125 NOOTKA LIGHT        P125","WCVI","WCVIG","49.6","-126.6167","N"
"L","4.1","20200203","CDFO","2MS02H021       516","1","SWTR         H021-516",,,,,,"SWTR            CARMANAH POINT","WCVI","SWVI","48.6108","-124.7514","N"
"L","4.1","20200203","CDFO","2MS22P016DICK IS 21","1","GSPTN DICK IS (16-21)","49.6514","-124.47",,,,"GSPTN           STAT AREA: P016 DICK ISLAND         P016","GST","GSMS","49.65","-124.4667","N"
"L","4.1","20200203","CDFO","2MS23P028SEAL RK 02","1","GSPTS SEAL RK (28-2)","49.3417","-123.2733",,,,"GSPTS           STAT AREA: P028 SEAL ROCKS          P028","GST","GSMS","49.35","-123.2833","N"
"L","4.1","20200203","CDFO","2MN26P012BELL SD 45","1","CSPT  BELL SD (12-45)","50.8842","-126.4297",,,,"CSPT            STAT AREA: P012 BELLEISLE SOUND     P012","JNST","JSM","50.8833","-126.4167","N"
"L","4.1","20200203","CDFO","2MS17M119       000","1","NWTR & SWTR  M119-000",,,,,,"NWTR & SWTR     PFMA 24 to 26, 124 to 126 (STAT AREAS 24 to 26)","WCVI","WCVIG",,,"N"
"L","4.1","20200203","CDFO","2MS04P017       164","1","GSTR         P017-164",,,,,,"GSTR            EAST SIDE OF VALDES I.","GST","GSVI","49.09","-123.64","N"
"L","4.1","20200203","CDFO","2MS27H027QUATSIN","1","WSPT  QUATSIN [H027]","50.5333","-127.65",,,,"WSPT            STAT AREA: H027 QUATSINO            H027","WCVI","NWVI","50.5333","-127.65","N"
"L","4.1","20200203","CDFO","2MS22P014SEAE RK 03","1","GSPTN SEAE RK (14-3)","49.4522","-124.3103",,,,"GSPTN           STAT AREA: P014 SEA EGG ROCKS       P014","GST","GSVI","49.45","-124.3","N"
"L","4.1","20200203","CDFO","2MS27H025TWFIVEO","1","WSPT  TWFIVEO [H025]",,,,,,"WSPT            STAT AREA: H025 UNKNOWN PFMA 125    H025","WCVI","WCVIG","49.6","-126.9","N"
"L","4.1","20180206","CDFO","2MS23P029CHAS CR 01","1","GSPTS CHAS CR (29-1)","49.39","-123.5561",,,,"GSPTS           STAT AREA: P029 CHASTER CREEK       P029","GST","GSMS","49.3833","-123.55","N"
"L","4.1","20200203","CDFO","2FS99GSVIR0105","1","R-PUNTLEDGE R",,,,,,"CDN ESCMENT     PUNTLEDGE R          GSVI","GST","GSVI","49.687","-125.039","N"
"L","4.1","20200203","CDFO","2MN57P012       101","1","SCTR         P012-101",,,,,,"SCTR            PORT HARDY","JNST","JSVI","50.71","-127.42","N"
"L","4.1","20200203","CDFO","2MS27P124TOFINOO 03","1","WSPT  TOFINOO (124-3)",,,,,,"WSPT            STAT AREA: P124 TOFINO              P124","WCVI","SWVI","49.1582","-125.9063","N"
"L","4.1","20200203","CDFO","2MS27M403","1","WSPT         M403",,,,,,"WSPT            Composite Area: PFMA 125/126","WCVI","NWVI","49","-128.24","N"
"L","4.1","20200203","CDFO","2MN26P012KENT IS 13","1","CSPT  KENT IS (12-13)","50.91","-127.5433",,,,"CSPT            STAT AREA: P012 KENT ISLAND         P012","JNST","JSM","50.9","-127.5333","N"
"L","4.1","20200203","CDFO","2MS22P013GOWL HA 04","1","GSPTN GOWL HA (13-4)","50.0822","-125.2375",,,,"GSPTN           STAT AREA: P013 GOWLLAND HARBOUR    P013","JNST","JSM","50.0833","-125.2167","N"
"L","4.1","20200203","CDFO","2MS22P016GRAN IS 01","1","GSPTN GRAN IS (16-1)","49.5114","-123.9689",,,,"GSPTN           STAT AREA: P016 GRANT ISLAND        P016","GST","GSMS","49.5167","-123.9833","N"
"L","4.1","20200203","CDFO","2MS10P014       000","1","GSN          P014-000",,,,,,"GSN             PFMA 14 - Oyster River, Parksville","GST","GSVI","49.61","-124.71","N"
"L","4.1","20200203","CDFO","2MS22P013HOSK CH 12","1","GSPTN HOSK CH (13-12)","50.1775","-125.1414",,,,"GSPTN           STAT AREA: P013 HOSKYN CHANNEL      P013","JNST","JSM","50.1667","-125.15","N"
"L","4.1","20200203","CDFO","2MS22P015ECHO BY 03","1","GSPTN ECHO BY (15-3)","50.0208","-124.9242",,,,"GSPTN           STAT AREA: P015 ECHO BAY            P015","GST","GSMN","50.0208","-124.9242","N"
"L","4.1","20200203","CDFO","2MS22P014HORN IS 07","1","GSPTN HORN IS (14-7)","49.5233","-124.6642",,,,"GSPTN           STAT AREA: P014 HORNBY ISLAND       P014","GST","GSVI","49.5667","-124.6667","N"
"L","4.1","20200203","CDFO","2MS23M19ACOAL PT 07","1","GSPTS COAL PT (19-7)","48.6772","-123.4889",,,,"GSPTS           STAT AREA: M19A COAL POINT          M19A","GST","GSVI","48.6772","-123.4889","N"
"L","4.1","20200203","CDFO","2MS23P017NANO BY 19","1","GSPTS NANO BY (17-19)","49.2638","-124.1738",,,,"GSPTS           STAT AREA: P017 NANOOSE BAY         P017","GST","GSVI","49.2638","-124.1738","N"
"L","4.1","20200203","CDFO","2MS23M19ASAND BE 11","1","GSPTS SAND BE (19-11)","48.5333","-123.5333",,,,"GSPTS           STAT AREA: M19A SANDY BEACH         M19A","GST","GSVI","48.5333","-123.5333","N"
"L","4.1","20200203","CDFO","2MN26H011BREM PT","1","CSPT  BREM PT [H011]","51.1047","-127.6792",,,,"CSPT            STAT AREA: H011 BREMNER POINT       H011","JNST","JNSTG","51.1047","-127.6792","N"
"L","4.1","20200203","CDFO","2MS62P015COHO PT 02","1","GSSPTCCOHO PT (15-2)","49.7986","-124.6372",,,,"GSSPTC          STAT AREA: P015 COHOE POINT         P015","GST","GSMN","49.7986","-124.6372","N"
"L","4.1","20200203","CDFO","2MS24M19BFORR IS 05","1","JFSPT FORR IS (19-5)","48.6622","-123.3353",,,,"JFSPT           STAT AREA: M19B FORREST ISLAND      M19B","GST","GSVI","48.6622","-123.3353","N"
"L","4.1","20200203","CDFO","2MS27P123BARK SO","1","WSPT  BARK SO (P123)",,,,,,"WSPT            STAT AREA: P123 BARKLEY SOUND       P123","WCVI","SWVI","48.88","-125.26","N"
"L","4.1","20200203","CDFO","2MS22P013MITL IS","1","GSPTN MITL IS (P013)","49.9506","-125.0039",,,,"GSPTN           STAT AREA: P013 MITLENATCH ISLAND   P013","GST","GSVI","49.9506","-125.0039","N"
"L","4.1","20200203","CDFO","2MS24M19BDARC IS 05","1","JFSPT DARC IS (19-5)","48.5664","-123.2789",,,,"JFSPT           STAT AREA: M19B D'ARCY ISLAND       M19B","GST","GSVI","48.5667","-123.2833","N"
"L","4.1","20200203","CDFO","2MS62P014AIRF BE 13","1","GSSPTCAIRF BE (14-13)","49.7171","-124.8688",,,,"GSSPTC          STAT AREA: P014 AIRFORCE BEACH      P014","GST","GSVI","49.7171","-124.8688","N"
"L","4.1","20200203","CDFO","2MS62P015KING IS 05","1","GSSPTCKING IS (15-5)","50.0831","-124.8483",,,,"GSSPTC          STAT AREA: P015 KINGHORN ISLAND     P015","GST","GSMN","50.0833","-124.8333","N"
"L","4.1","20200203","CDFO","2MS11P012       101","1","JSN          P012-101",,,,,,"JSN             PORT HARDY","JNST","JSVI","50.71","-127.42","N"
"L","4.1","20200203","CDFO","2MS22P016WOOD BY 01","1","GSPTN WOOD BY (16-1)","49.5497","-123.9911",,,,"GSPTN           STAT AREA: P016 WOOD BAY            P016","GST","GSMS","49.5","-123.9833","N"
"L","4.1","20200203","CDFO","2MS23P017FLAT IS 10","1","GSPTS FLAT IS (17-10)","49.156","-123.6842",,,,"GSPTS           STAT AREA: P017 FLAT TOP ISLANDS    P017","GST","GSVI","49.156","-123.6842","N"
"L","4.1","20200616","WDFW","3M*       CANADAR19","1","BC-W VANC IS LAND WA",,,"WCVIG","WCVI",,"BC - WEST COAST VANCOUVER ISLAND TROLL (THRU 1980)","WCVI","WCVIG",,,"N"
"L","4.1","20200203","CDFO","2MS01H027       184","1","NWTR         H027-184",,,,,,"NWTR            QUATSINO SD.","WCVI","NWVI","50.46","-127.96","N"
"L","4.1","20200203","CDFO","2MS23P028EAGL HA 02","1","GSPTS EAGL HA (28-2)","49.3517","-123.2711",,,,"GSPTS           STAT AREA: P028 EAGLE HARBOUR       P028","GST","GSMS","49.35","-123.2667","N"
"L","4.1","20200203","CDFO","2MS04P016       163","1","GSTR         P016-163",,,,,,"GSTR            THORMANBY I. (PFMA SUBS 16-1, -2)","GST","GSMS","49.51","-124.03","N"
"L","4.1","20200203","CDFO","2MS02H024       000","1","SWTR         H024-000",,,,,,"SWTR            PFMA 24, 124 (STAT AREA 24)","WCVI","SWVI","49.16","-126.12","N"
"L","4.1","20200203","CDFO","2MS02H024       752","1","SWTR         H024-752",,,,,,"SWTR            TROLL ZONE 20 (part of PFMA 124)","WCVI","SWVI","49.11","-126.11","N"
"L","4.1","20200203","CDFO","2MS22P013PLUN PS 15","1","GSPTN PLUN PS (13-15)","50.1183","-125.0731",,,,"GSPTN           STAT AREA: P013 PLUNGER PASSAGE     P013","JNST","JSM","50.1167","-125.0667","N"
"L","4.1","20200203","CDFO","2MS23P018BOLD BF 07","1","GSPTS BOLD BF (18-7)","48.7878","-123.5542",,,,"GSPTS           STAT AREA: P018 BOLD BLUFF POINT    P018","GST","GSVI","48.7833","-123.55","N"
"L","4.1","20200203","CDFO","2MS27P125MAQU PT 01","1","WSPT  MAQU PT (125-1)","49.58","-126.6772",,,,"WSPT            STAT AREA: P125 MAQUINNA POINT      P125","WCVI","WCVIG","49.58","-126.6772","N"
"L","4.1","20180206","CDFO","2MS23P029TWNINE","1","GSPTS TWNINE (P029)",,,,,,"GSPTS           STAT AREA: P029 UNKNOWN PFMA 29     P029","GST","GSTG","49.15","-123.45","N"
"L","4.1","20200203","CDFO","2MS22P013BUTL PT 14","1","GSPTN BUTL PT (13-14)","49.991","-125.1639",,,,"GSPTN           STAT AREA: P013 BUTLER POINT        P013","JNST","JSM","49.991","-125.1639","N"
"L","4.1","20200203","CDFO","2MS22P013LIGH BB 01","1","GSPTN LIGH BB (13-1)","49.995","-125.1853",,,,"GSPTN           STAT AREA: P013 LIGHT BUOY          P013","GST","GSTG","49.9833","-125.15","N"
"L","4.1","20200203","CDFO","2F 290FW HYDE CK","1","FWSPT HYDE CK [FW]","50.5828","-127.0178",,,,"FWSPT           STAT AREA: 0FW HYDE CREEK          0FW","JNST","JSVI","50.5833","-127.0167","N"
"L","4.1","20200203","CDFO","2MS24P020GORD BE 05","1","JFSPT GORD BE (20-5)","48.3667","-123.8333",,,,"JFSPT           STAT AREA: P020 GORDONS BEACH       P020","WCVI","SWVI","48.3667","-123.8333","N"
"L","4.1","20200203","CDFO","2MS27P125CATA IS","1","WSPT  CATA IS (P125)","49.8375","-127.0514",,,,"WSPT            STAT AREA: P125 CATALA ISLAND       P125","WCVI","NWVI","49.8333","-127.05","N"
"L","4.1","20200203","CDFO","2MS23P017CROF HA 09","1","GSPTS CROF HA (17-9)","48.8672","-123.625",,,,"GSPTS           STAT AREA: P017 CROFTON HARBOUR     P017","GST","GSVI","48.8667","-123.6333","N"
"L","4.1","20200203","CDFO","2MS27P024CATFACE 07","1","WSPT  CATFACE (24-7)","49.22","-125.9739",,,,"WSPT            STAT AREA: P024 CATFACE             P024","WCVI","SWVI","49.22","-125.9739","N"
"L","4.1","20200203","CDFO","2MS22P013EARLYS  02","1","GSPTN EARLYS (13-2)","49.95","-125.2",,,,"GSPTN           STAT AREA: P013 EARLYS              P013","GST","GSVI","49.95","-125.2","N"
"L","4.1","20200203","CDFO","2MS61P013SALM PT","1","JSSSPTSALM PT (P013)","49.8913","-125.1206",,,,"JSSSPT          STAT AREA: P013 SALMON POINT RESORT P013","GST","GSVI","49.8913","-125.1206","N"
"L","4.1","20200203","CDFO","2MS22P013COUL BY 16","1","GSPTN COUL BY (13-16)","50.1331","-125.0442",,,,"GSPTN           STAT AREA: P013 COULTER BAY         P013","JNST","JSM","50.1333","-125.05","N"
"L","4.1","20200203","CDFO","2MS27P127WINT HO 01","1","WSPT  WINT HO (127-1)",,,,,,"WSPT            STAT AREA: P127 WINTER HARBOUR      P127","WCVI","NWVI","50.45","-128.16","N"
"L","4.1","20200203","CDFO","2MS22P013BROW BY 06","1","GSPTN BROW BY (13-6)","50.1616","-125.371",,,,"GSPTN           STAT AREA: P013 BROWN BAY           P013","JNST","JNSTG","50.1616","-125.371","N"
"L","4.1","20200203","CDFO","2MS27P127","1","WSPT         P127",,,,,,"WSPT            PFMA 127 - Open water west of Northern Vancouver Island","WCVI","NWVI","50","-129.6","N"
"L","4.1","20200203","CDFO","2MS13P020       174","1","JFN          P020-174",,,,,,"JFN             SOMBRIO PT. TO SHERINGHAM PT. (PFMA SUB 20-4)","WCVI","SWVI","48.4","-124.1","N"
"L","4.1","20200203","CDFO","2MS17M116       367","1","NWTR & SWTR  M116-367",,,,,,"NWTR & SWTR     PFMAS 23 to 26, 123 to 126 - MRP SUBS 59, 60, 61, 62, 63, 64, 65, 66, 67, 68","WCVI","WCVIG",,,"N"
"L","4.1","20200203","CDFO","2MS23P017BREA IS 10","1","GSPTS BREA IS (17-10)","49.135","-123.6831",,,,"GSPTS           STAT AREA: P017 BREAKWATER ISLAND   P017","GST","GSVI","49.1333","-123.6833","N"
"L","4.1","20200203","CDFO","2MS01H027       071","1","NWTR         H027-071",,,,,,"NWTR            TOPKNOT PT. TO CAPE SCOTT","WCVI","NWVI","50.65","-128.36","N"
"L","4.1","20200203","CDFO","2MS24M19BHALI IS 06","1","JFSPT HALI IS (19-6)","48.6203","-123.2728",,,,"JFSPT           STAT AREA: M19B HALIBUT ISLAND      M19B","GST","GSVI","48.6167","-123.2667","N"
"L","4.1","20200203","CDFO","2MS24M19BCOAL IS","1","JFSPT COAL IS (M19B)","48.6844","-123.3781",,,,"JFSPT           STAT AREA: M19B COAL ISLAND         M19B","GST","GSVI","48.6844","-123.3781","N"
"L","4.1","20200203","CDFO","2MS23P017ADA IS  18","1","GSPTS ADA IS (17-18)","49.2853","-124.0867",,,,"GSPTS           STAT AREA: P017 ADA ISLANDS         P017","GST","GSVI","49.2833","-124.0667","N"
"L","4.1","20200203","CDFO","2MS02M114       746","1","SWTR         M114-746",,,,,,"SWTR            TROLL ZONE 15A (part of PFMAs 123, 124)","WCVI","SWVI","48.84","-125.98","N"
"L","4.1","20200203","CDFO","2MS27H027TWSEVEN","1","WSPT  TWSEVEN [H027]",,,,,,"WSPT            STAT AREA: H027 UNKNOWN PFMA 27/127 H027","WCVI","NWVI","50.45","-128.12","N"
"L","4.1","20200203","CDFO","2MS24M19BBROT IS 03","1","JFSPT BROT IS (19-3)","48.4233","-123.4303",,,,"JFSPT           STAT AREA: M19B BROTHERS ISLANDS    M19B","GST","GSVI","48.4167","-123.4333","N"
"L","4.1","20200203","CDFO","2MN26P012TWELVE","1","CSPT  TWELVE (P012)",,,,,,"CSPT            STAT AREA: P012 UNKNOWN PFMA 12     P012","JNST","JNSTG","50.72","-126.76","N"
"L","4.1","20200203","CDFO","2FS99SWVIR0453","1","R-KENNEDY R LOW",,,,,,"CDN ESCMENT     KENNEDY R LOW        SWVI","WCVI","SWVI","49.134","-125.667","N"
"L","4.1","20200203","CDFO","2MS62P016FEGA IT 20","1","GSSPTCFEGA IT (16-20)","49.5322","-124.3831",,,,"GSSPTC          STAT AREA: P016 FEGEN ISLETS        P016","GST","GSMS","49.5333","-124.3833","N"
"L","4.1","20200203","CDFO","2MS62P016A FRAME 17","1","GSSPTCA FRAME (16-17)","49.65","-124.0667",,,,"GSSPTC          STAT AREA: P016 A FRAME             P016","GST","GSMS","49.65","-124.0667","N"
"L","4.1","20180206","CDFO","2MS22P013SHEL PT","1","GSPTN SHEL PT (P013)","49.9411","-125.1738",,,,"GSPTN           STAT AREA: P013 SHELTER POINT       P013","GST","GSVI","49.9411","-125.1738","N"
"L","4.1","20200203","CDFO","2MS22P014CP LAZO 12","1","GSPTN CP LAZO (14-12)","49.7014","-124.86",,,,"GSPTN           STAT AREA: P014 CAPE LAZO           P014","GST","GSVI","49.7014","-124.86","N"
"L","4.1","20200203","CDFO","2MS24M19BGONZ PT 04","1","JFSPT GONZ PT (19-4)","48.4119","-123.2942",,,,"JFSPT           STAT AREA: M19B GONZALES POINT      M19B","GST","GSVI","48.4","-123.2833","N"
"L","4.1","20180206","CDFO","2F 290FW CHAP CK 01","1","FWSPT CHAP CK [29-1]","49.4392","-123.7233",,,,"FWSPT           STAT AREA: 0FW CHAPMAN CREEK       0FW","GST","GSMS","49.4392","-123.7233","N"
"L","4.1","20200203","CDFO","2MS22P013FRED PT 17","1","GSPTN FRED PT (13-17)","50.1842","-125.0503",,,,"GSPTN           STAT AREA: P013 FREDERIC POINT      P013","JNST","JSM","50.1833","-125.05","N"
"L","4.1","20200203","CDFO","2MS04P017       098","1","GSTR         P017-098",,,,,,"GSTR            PORLIER PASS (PFMA SUBS 17-1, -2, -3, -8)","GST","GSVI","49.06","-123.68","N"
"L","4.1","20200203","CDFO","2MS23P017THRA RK 10","1","GSPTS THRA RK (17-10)","49.15","-123.65",,,,"GSPTS           STAT AREA: P017 THRASHER ROCK       P017","GST","GSVI","49.15","-123.65","N"
"L","4.1","20200203","CDFO","2M BMP013BIG RK  02","1","BC MARBIG RK (13-2)","49.9896","-125.2226",,,,"BC MARINE       STAT AREA: P013 BIG ROCK            P013","GST","GSVI","49.9896","-125.2226","N"
"L","4.1","20200203","CDFO","2MS27H23BUCLUELO","1","WSPT  UCLUELO [H23B]",,,,,,"WSPT            STAT AREA: H23B UCLUELET            H23B","WCVI","SWVI","48.951","-125.5506","N"
"L","4.1","20200203","CDFO","2MS23P017NEWC IS 13","1","GSPTS NEWC IS (17-13)","49.1911","-123.935",,,,"GSPTS           STAT AREA: P017 NEWCASTLE ISLAND    P017","GST","GSVI","49.2","-123.9167","N"
"L","4.1","20200203","CDFO","2MS23P018MAYN IS 01","1","GSPTS MAYN IS (18-1)","48.845","-123.2808",,,,"GSPTS           STAT AREA: P018 MAYNE ISLAND        P018","GST","GSVI","48.8333","-123.2333","N"
"L","4.1","20200203","CDFO","2MS27P027KOSK BY 07","1","WSPT  KOSK BY (27-7)","50.4628","-127.8831",,,,"WSPT            STAT AREA: P027 KOSKIMO BAY         P027","WCVI","NWVI","50.4667","-127.8833","N"
"L","4.1","20200203","CDFO","2MN26P012BLAC BF 08","1","CSPT  BLAC BF (12-8)","50.6639","-126.9972",,,,"CSPT            STAT AREA: P012 BLACK BLUFF         P012","JNST","JNSTG","50.6639","-126.9972","N"
"L","4.1","20200203","CDFO","2MS27P027MOND RK 07","1","WSPT  MOND RK (27-7)","50.4808","-127.8861",,,,"WSPT            STAT AREA: P027 MONDAY ROCKS        P027","WCVI","NWVI","50.4833","-127.8833","N"
"L","4.1","20180206","CDFO","2F 29FWLFSUNB BR 12","1","FWSPT SUNB BR [29-12]","49.15","-122.8333",,,,"FWSPT           STAT AREA: FWLF FRASER:SUNBURY BAR  FWLF","GST","GSMS","49.15","-122.8333","N"
"L","4.1","20200203","CDFO","2FS99JNSTR2514","1","R-KOKISH R",,,,,,"CDN ESCMENT     KOKISH R             JNST","JNST","JSVI","50.5333","-126.868","N"
